[
  {
    "postal_code": "T0A",
    "place_name": "Eastern Alberta (St. Paul)",
    "province": "Alberta",
    "lat": 53.9225,
    "lng": -111.0585
  },
  {
    "postal_code": "T0B",
    "place_name": "Wainwright Region (Tofield)",
    "province": "Alberta",
    "lat": 53.0635,
    "lng": -112.3067
  },
  {
    "postal_code": "T0C",
    "place_name": "Central Alberta (Stettler)",
    "province": "Alberta",
    "lat": 51.9565,
    "lng": -110.0761
  },
  {
    "postal_code": "T0E",
    "place_name": "Western Alberta (Jasper)",
    "province": "Alberta",
    "lat": 53.8486,
    "lng": -114.4361
  },
  {
    "postal_code": "T0G",
    "place_name": "North Central Alberta (Slave Lake)",
    "province": "Alberta",
    "lat": 54.2653,
    "lng": -115.3827
  },
  {
    "postal_code": "T0H",
    "place_name": "Northwestern Alberta (High Level)",
    "province": "Alberta",
    "lat": 56.6598,
    "lng": -117.2896
  },
  {
    "postal_code": "T0J",
    "place_name": "Southeastern Alberta (Drumheller)",
    "province": "Alberta",
    "lat": 49.8442,
    "lng": -110.78
  },
  {
    "postal_code": "T0K",
    "place_name": "International Border Region (Cardston)",
    "province": "Alberta",
    "lat": 49.7318,
    "lng": -112.6171
  },
  {
    "postal_code": "T0L",
    "place_name": "Kananaskis Country (Claresholm)",
    "province": "Alberta",
    "lat": 49.8736,
    "lng": -113.5074
  },
  {
    "postal_code": "T0M",
    "place_name": "Central Foothills (Sundre)",
    "province": "Alberta",
    "lat": 52.0306,
    "lng": -113.9565
  },
  {
    "postal_code": "T0P",
    "place_name": "Northeastern Alberta (Fort Chipewyan)",
    "province": "Alberta",
    "lat": 58.759,
    "lng": -111.0874
  },
  {
    "postal_code": "T0V",
    "place_name": "Remote Northeast (Fitzgerald)",
    "province": "Alberta",
    "lat": 59.8685,
    "lng": -111.6329
  },
  {
    "postal_code": "T1A",
    "place_name": "Medicine Hat Central",
    "province": "Alberta",
    "lat": 50.0365,
    "lng": -110.661
  },
  {
    "postal_code": "T1B",
    "place_name": "Medicine Hat South",
    "province": "Alberta",
    "lat": 50.0172,
    "lng": -110.651
  },
  {
    "postal_code": "T1C",
    "place_name": "Medicine Hat North",
    "province": "Alberta",
    "lat": 50.0556,
    "lng": -110.6822
  },
  {
    "postal_code": "T1G",
    "place_name": "Taber",
    "province": "Alberta",
    "lat": 49.7773,
    "lng": -112.158
  },
  {
    "postal_code": "T1H",
    "place_name": "Lethbridge North",
    "province": "Alberta",
    "lat": 49.7118,
    "lng": -112.8196
  },
  {
    "postal_code": "T1J",
    "place_name": "Lethbridge West and Central",
    "province": "Alberta",
    "lat": 49.6915,
    "lng": -112.8294
  },
  {
    "postal_code": "T1K",
    "place_name": "Lethbridge Southeast",
    "province": "Alberta",
    "lat": 49.6765,
    "lng": -112.8035
  },
  {
    "postal_code": "T1L",
    "place_name": "Banff",
    "province": "Alberta",
    "lat": 51.1791,
    "lng": -115.5697
  },
  {
    "postal_code": "T1M",
    "place_name": "Coaldale",
    "province": "Alberta",
    "lat": 49.7285,
    "lng": -112.6146
  },
  {
    "postal_code": "T1P",
    "place_name": "Strathmore",
    "province": "Alberta",
    "lat": 51.0459,
    "lng": -113.3967
  },
  {
    "postal_code": "T1R",
    "place_name": "Brooks",
    "province": "Alberta",
    "lat": 50.5659,
    "lng": -111.8896
  },
  {
    "postal_code": "T1S",
    "place_name": "Okotoks",
    "province": "Alberta",
    "lat": 50.7064,
    "lng": -113.9554
  },
  {
    "postal_code": "T1V",
    "place_name": "High River",
    "province": "Alberta",
    "lat": 50.5775,
    "lng": -113.8747
  },
  {
    "postal_code": "T1W",
    "place_name": "Canmore",
    "province": "Alberta",
    "lat": 51.0868,
    "lng": -115.3384
  },
  {
    "postal_code": "T1X",
    "place_name": "Chestermere",
    "province": "Alberta",
    "lat": 51.0512,
    "lng": -113.8155
  },
  {
    "postal_code": "T1Y",
    "place_name": "Calgary (Rundle / Whitehorn / Monterey Park)",
    "province": "Alberta",
    "lat": 51.0759,
    "lng": -114.0015
  },
  {
    "postal_code": "T2A",
    "place_name": "Calgary (Penbrooke Meadows / Marlborough)",
    "province": "Alberta",
    "lat": 51.0402,
    "lng": -113.9844
  },
  {
    "postal_code": "T2B",
    "place_name": "Calgary (Forest Lawn / Dover / Erin Woods)",
    "province": "Alberta",
    "lat": 51.0318,
    "lng": -113.9786
  },
  {
    "postal_code": "T2C",
    "place_name": "Calgary (Lynnwood Ridge / Ogden / Foothills Industrial / Great Plains)",
    "province": "Alberta",
    "lat": 50.9878,
    "lng": -114.0001
  },
  {
    "postal_code": "T2E",
    "place_name": "Calgary (Bridgeland / Greenview / Zoo / YYC)",
    "province": "Alberta",
    "lat": 51.0632,
    "lng": -114.0614
  },
  {
    "postal_code": "T2G",
    "place_name": "Calgary (Inglewood / Burnsland / Chinatown / East Victoria Park / Saddledome)",
    "province": "Alberta",
    "lat": 51.0415,
    "lng": -114.0599
  },
  {
    "postal_code": "T2H",
    "place_name": "Calgary (Highfield / Burns Industrial)",
    "province": "Alberta",
    "lat": 50.9857,
    "lng": -114.0631
  },
  {
    "postal_code": "T2J",
    "place_name": "Calgary (Queensland Downs / Lake Bonavista / Willow Park / Acadia)",
    "province": "Alberta",
    "lat": 50.9693,
    "lng": -114.0514
  },
  {
    "postal_code": "T2K",
    "place_name": "Calgary (Thornecliffe / Tuxedo)",
    "province": "Alberta",
    "lat": 51.0857,
    "lng": -114.0714
  },
  {
    "postal_code": "T2L",
    "place_name": "Calgary (Brentwood / Collingwood / Nose Hill)",
    "province": "Alberta",
    "lat": 51.0917,
    "lng": -114.1127
  },
  {
    "postal_code": "T2M",
    "place_name": "Calgary (Mount Pleasant / Capitol Hill / Banff Trail)",
    "province": "Alberta",
    "lat": 51.0696,
    "lng": -114.0862
  },
  {
    "postal_code": "T2N",
    "place_name": "Calgary (Kensington / Westmont / Parkdale / University)",
    "province": "Alberta",
    "lat": 51.0591,
    "lng": -114.1146
  },
  {
    "postal_code": "T2P",
    "place_name": "Calgary (City Centre / Calgary Tower)",
    "province": "Alberta",
    "lat": 51.0472,
    "lng": -114.0802
  },
  {
    "postal_code": "T2R",
    "place_name": "Calgary (Connaught / West Victoria Park)",
    "province": "Alberta",
    "lat": 51.0426,
    "lng": -114.0791
  },
  {
    "postal_code": "T2S",
    "place_name": "Calgary (Elbow Park / Britannia / Parkhill / Mission)",
    "province": "Alberta",
    "lat": 51.0171,
    "lng": -114.0812
  },
  {
    "postal_code": "T2T",
    "place_name": "Calgary South (Altadore / Bankview / Richmond)",
    "province": "Alberta",
    "lat": 51.0316,
    "lng": -114.0994
  },
  {
    "postal_code": "T2V",
    "place_name": "Calgary (Oak Ridge / Haysboro / Kingsland / Windsor Park)",
    "province": "Alberta",
    "lat": 50.9909,
    "lng": -114.074
  },
  {
    "postal_code": "T2W",
    "place_name": "Calgary (Braeside / Woodbine)",
    "province": "Alberta",
    "lat": 50.9604,
    "lng": -114.1001
  },
  {
    "postal_code": "T2X",
    "place_name": "Calgary (Midnapore / Sundance)",
    "province": "Alberta",
    "lat": 50.9204,
    "lng": -114.0674
  },
  {
    "postal_code": "T2Y",
    "place_name": "Calgary (Millrise / Somerset / Bridlewood / Evergreen)",
    "province": "Alberta",
    "lat": 50.9093,
    "lng": -114.0721
  },
  {
    "postal_code": "T2Z",
    "place_name": "Calgary (Douglas Glen / McKenzie Lake / Copperfield / East Shepard)",
    "province": "Alberta",
    "lat": 50.9023,
    "lng": -113.9873
  },
  {
    "postal_code": "T3A",
    "place_name": "Calgary (Dalhousie / Edgemont / Hamptons / Hidden Valley)",
    "province": "Alberta",
    "lat": 51.0922,
    "lng": -114.1479
  },
  {
    "postal_code": "T3B",
    "place_name": "Calgary (Montgomery / Bowness / Silver Springs / Greenwood)",
    "province": "Alberta",
    "lat": 51.0809,
    "lng": -114.1616
  },
  {
    "postal_code": "T3C",
    "place_name": "Calgary (Rosscarrock / Wildwood / Shaganappi / Sunalta)",
    "province": "Alberta",
    "lat": 51.0388,
    "lng": -114.098
  },
  {
    "postal_code": "T3E",
    "place_name": "Calgary (Lakeview / Glendale / Killarney / Glamorgan)",
    "province": "Alberta",
    "lat": 51.0227,
    "lng": -114.1342
  },
  {
    "postal_code": "T3G",
    "place_name": "Calgary (Hawkwood / Arbour Lake / Royal Oak / Rocky Ridge)",
    "province": "Alberta",
    "lat": 51.1147,
    "lng": -114.1796
  },
  {
    "postal_code": "T3H",
    "place_name": "Calgary (Discovery Ridge / Signal Hill / Aspen Woods / Patterson / Cougar Ridge)",
    "province": "Alberta",
    "lat": 51.0566,
    "lng": -114.1815
  },
  {
    "postal_code": "T3J",
    "place_name": "Calgary (Martindale / Taradale / Falconridge / Saddle Ridge)",
    "province": "Alberta",
    "lat": 51.0999,
    "lng": -113.9422
  },
  {
    "postal_code": "T3K",
    "place_name": "Calgary (Sandstone / Harvest Hills / Coventry Hills / Panorama Hills / Beddington)",
    "province": "Alberta",
    "lat": 51.127,
    "lng": -114.0787
  },
  {
    "postal_code": "T3L",
    "place_name": "Calgary (Tuscany / Scenic Acres)",
    "province": "Alberta",
    "lat": 51.1162,
    "lng": -114.2089
  },
  {
    "postal_code": "T3M",
    "place_name": "Calgary (Cranston)",
    "province": "Alberta",
    "lat": 50.8902,
    "lng": -113.9892
  },
  {
    "postal_code": "T3N",
    "place_name": "Calgary Northeast",
    "province": "Alberta",
    "lat": 51.1494,
    "lng": -114.0019
  },
  {
    "postal_code": "T3P",
    "place_name": "Calgary (Symons Valley)",
    "province": "Alberta",
    "lat": 51.1793,
    "lng": -114.1333
  },
  {
    "postal_code": "T3R",
    "place_name": "Calgary Northwest",
    "province": "Alberta",
    "lat": 51.1497,
    "lng": -114.2695
  },
  {
    "postal_code": "T3Z",
    "place_name": "Redwood Meadows",
    "province": "Alberta",
    "lat": 50.9821,
    "lng": -114.5178
  },
  {
    "postal_code": "T4A",
    "place_name": "Airdrie East",
    "province": "Alberta",
    "lat": 51.2733,
    "lng": -113.9909
  },
  {
    "postal_code": "T4B",
    "place_name": "Airdrie West",
    "province": "Alberta",
    "lat": 51.2816,
    "lng": -114.0153
  },
  {
    "postal_code": "T4C",
    "place_name": "Cochrane",
    "province": "Alberta",
    "lat": 51.1896,
    "lng": -114.4774
  },
  {
    "postal_code": "T4E",
    "place_name": "Red Deer County",
    "province": "Alberta",
    "lat": 52.2911,
    "lng": -113.7027
  },
  {
    "postal_code": "T4G",
    "place_name": "Innisfail",
    "province": "Alberta",
    "lat": 52.029,
    "lng": -113.9474
  },
  {
    "postal_code": "T4H",
    "place_name": "Olds",
    "province": "Alberta",
    "lat": 51.7956,
    "lng": -114.0944
  },
  {
    "postal_code": "T4J",
    "place_name": "Ponoka",
    "province": "Alberta",
    "lat": 52.6649,
    "lng": -113.5823
  },
  {
    "postal_code": "T4L",
    "place_name": "Lacombe",
    "province": "Alberta",
    "lat": 52.36,
    "lng": -114.3736
  },
  {
    "postal_code": "T4N",
    "place_name": "Red Deer Central",
    "province": "Alberta",
    "lat": 52.2592,
    "lng": -113.8237
  },
  {
    "postal_code": "T4P",
    "place_name": "Red Deer North",
    "province": "Alberta",
    "lat": 52.2887,
    "lng": -113.8394
  },
  {
    "postal_code": "T4R",
    "place_name": "Red Deer South",
    "province": "Alberta",
    "lat": 52.2451,
    "lng": -113.7855
  },
  {
    "postal_code": "T4S",
    "place_name": "Sylvan Lake",
    "province": "Alberta",
    "lat": 52.3083,
    "lng": -114.0949
  },
  {
    "postal_code": "T4T",
    "place_name": "Rocky Mountain House",
    "province": "Alberta",
    "lat": 52.378,
    "lng": -114.9307
  },
  {
    "postal_code": "T4V",
    "place_name": "Camrose",
    "province": "Alberta",
    "lat": 53.0204,
    "lng": -112.8129
  },
  {
    "postal_code": "T4X",
    "place_name": "Beaumont",
    "province": "Alberta",
    "lat": 53.3571,
    "lng": -113.4129
  },
  {
    "postal_code": "T5A",
    "place_name": "Edmonton (West Clareview / East Londonderry)",
    "province": "Alberta",
    "lat": 53.5899,
    "lng": -113.4413
  },
  {
    "postal_code": "T5B",
    "place_name": "Edmonton (East North Central / West Beverly)",
    "province": "Alberta",
    "lat": 53.5766,
    "lng": -113.4608
  },
  {
    "postal_code": "T5C",
    "place_name": "Edmonton (Central Londonderry)",
    "province": "Alberta",
    "lat": 53.6129,
    "lng": -113.4572
  },
  {
    "postal_code": "T5E",
    "place_name": "Edmonton (West Londonderry / East Calder)",
    "province": "Alberta",
    "lat": 53.5923,
    "lng": -113.5168
  },
  {
    "postal_code": "T5G",
    "place_name": "Edmonton (North Central / Queen Mary Park / YXD)",
    "province": "Alberta",
    "lat": 53.5682,
    "lng": -113.4822
  },
  {
    "postal_code": "T5H",
    "place_name": "Edmonton (North and East Downtown Fringe)",
    "province": "Alberta",
    "lat": 53.555,
    "lng": -113.4822
  },
  {
    "postal_code": "T5J",
    "place_name": "Edmonton (North Downtown)",
    "province": "Alberta",
    "lat": 53.5421,
    "lng": -113.4989
  },
  {
    "postal_code": "T5K",
    "place_name": "Edmonton (South Downtown / South Downtown Fringe)",
    "province": "Alberta",
    "lat": 53.535,
    "lng": -113.501
  },
  {
    "postal_code": "T5L",
    "place_name": "Edmonton (North Westmount / West Calder / East Mistatim)",
    "province": "Alberta",
    "lat": 53.5801,
    "lng": -113.541
  },
  {
    "postal_code": "T5M",
    "place_name": "Edmonton (South Westmount / Groat Estate / East Northwest Industrial)",
    "province": "Alberta",
    "lat": 53.5614,
    "lng": -113.5461
  },
  {
    "postal_code": "T5N",
    "place_name": "Edmonton (Glenora / SW Downtown Fringe)",
    "province": "Alberta",
    "lat": 53.5495,
    "lng": -113.5453
  },
  {
    "postal_code": "T5P",
    "place_name": "Edmonton (North Jasper Place)",
    "province": "Alberta",
    "lat": 53.5529,
    "lng": -113.584
  },
  {
    "postal_code": "T5R",
    "place_name": "Edmonton (Central Jasper Place / Buena Vista)",
    "province": "Alberta",
    "lat": 53.5224,
    "lng": -113.5763
  },
  {
    "postal_code": "T5S",
    "place_name": "Edmonton (West Northwest Industrial / Winterburn)",
    "province": "Alberta",
    "lat": 53.5416,
    "lng": -113.6249
  },
  {
    "postal_code": "T5T",
    "place_name": "Edmonton West (West Jasper Place / West Edmonton Mall)",
    "province": "Alberta",
    "lat": 53.5157,
    "lng": -113.6339
  },
  {
    "postal_code": "T5V",
    "place_name": "Edmonton (Central Mistatim)",
    "province": "Alberta",
    "lat": 53.58,
    "lng": -113.5873
  },
  {
    "postal_code": "T5W",
    "place_name": "Edmonton (Central Beverly)",
    "province": "Alberta",
    "lat": 53.5705,
    "lng": -113.4036
  },
  {
    "postal_code": "T5X",
    "place_name": "Edmonton (East Castledowns)",
    "province": "Alberta",
    "lat": 53.6072,
    "lng": -113.5183
  },
  {
    "postal_code": "T5Y",
    "place_name": "Edmonton (Landbank / Oliver / East Lake District)",
    "province": "Alberta",
    "lat": 53.6026,
    "lng": -113.3837
  },
  {
    "postal_code": "T5Z",
    "place_name": "Edmonton (West Lake District)",
    "province": "Alberta",
    "lat": 53.5966,
    "lng": -113.4882
  },
  {
    "postal_code": "T6A",
    "place_name": "Edmonton (North Capilano)",
    "province": "Alberta",
    "lat": 53.5483,
    "lng": -113.408
  },
  {
    "postal_code": "T6B",
    "place_name": "Edmonton (SE Capilano / West Southeast Industrial / East Bonnie Doon)",
    "province": "Alberta",
    "lat": 53.5322,
    "lng": -113.4404
  },
  {
    "postal_code": "T6C",
    "place_name": "Edmonton (Central Bonnie Doon)",
    "province": "Alberta",
    "lat": 53.5182,
    "lng": -113.4769
  },
  {
    "postal_code": "T6E",
    "place_name": "Edmonton (South Bonnie Doon / East University)",
    "province": "Alberta",
    "lat": 53.5087,
    "lng": -113.5078
  },
  {
    "postal_code": "T6G",
    "place_name": "Edmonton (West University / Strathcona Place)",
    "province": "Alberta",
    "lat": 53.5248,
    "lng": -113.5334
  },
  {
    "postal_code": "T6H",
    "place_name": "Edmonton (Southgate / North Riverbend)",
    "province": "Alberta",
    "lat": 53.4839,
    "lng": -113.5227
  },
  {
    "postal_code": "T6J",
    "place_name": "Edmonton (Kaskitayo)",
    "province": "Alberta",
    "lat": 53.4822,
    "lng": -113.5269
  },
  {
    "postal_code": "T6K",
    "place_name": "Edmonton (West Mill Woods)",
    "province": "Alberta",
    "lat": 53.4816,
    "lng": -113.4623
  },
  {
    "postal_code": "T6L",
    "place_name": "Edmonton (East Mill Woods)",
    "province": "Alberta",
    "lat": 53.4681,
    "lng": -113.4339
  },
  {
    "postal_code": "T6M",
    "place_name": "Edmonton Southwest",
    "province": "Alberta",
    "lat": 53.4967,
    "lng": -113.6162
  },
  {
    "postal_code": "T6N",
    "place_name": "Edmonton (South Industrial)",
    "province": "Alberta",
    "lat": 53.458,
    "lng": -113.4826
  },
  {
    "postal_code": "T6P",
    "place_name": "Edmonton (East Southeast Industrial / South Clover Bar)",
    "province": "Alberta",
    "lat": 53.4996,
    "lng": -113.3678
  },
  {
    "postal_code": "T6R",
    "place_name": "Edmonton (Riverbend)",
    "province": "Alberta",
    "lat": 53.4782,
    "lng": -113.5873
  },
  {
    "postal_code": "T6S",
    "place_name": "Edmonton (North Clover Bar)",
    "province": "Alberta",
    "lat": 53.5729,
    "lng": -113.3518
  },
  {
    "postal_code": "T6T",
    "place_name": "Edmonton (Meadows)",
    "province": "Alberta",
    "lat": 53.4768,
    "lng": -113.3662
  },
  {
    "postal_code": "T6V",
    "place_name": "Edmonton (West Castledowns)",
    "province": "Alberta",
    "lat": 53.6202,
    "lng": -113.543
  },
  {
    "postal_code": "T6W",
    "place_name": "Edmonton (Heritage Valley)",
    "province": "Alberta",
    "lat": 53.4129,
    "lng": -113.4957
  },
  {
    "postal_code": "T6X",
    "place_name": "Edmonton (Ellerslie)",
    "province": "Alberta",
    "lat": 53.4154,
    "lng": -113.4917
  },
  {
    "postal_code": "T7A",
    "place_name": "Drayton Valley",
    "province": "Alberta",
    "lat": 53.2165,
    "lng": -114.9893
  },
  {
    "postal_code": "T7E",
    "place_name": "Edson",
    "province": "Alberta",
    "lat": 53.5908,
    "lng": -116.4104
  },
  {
    "postal_code": "T7N",
    "place_name": "Barrhead",
    "province": "Alberta",
    "lat": 54.1136,
    "lng": -114.3932
  },
  {
    "postal_code": "T7P",
    "place_name": "Westlock",
    "province": "Alberta",
    "lat": 54.166,
    "lng": -113.8452
  },
  {
    "postal_code": "T7S",
    "place_name": "Whitecourt",
    "province": "Alberta",
    "lat": 54.1407,
    "lng": -115.6873
  },
  {
    "postal_code": "T7V",
    "place_name": "Hinton",
    "province": "Alberta",
    "lat": 53.3981,
    "lng": -117.5552
  },
  {
    "postal_code": "T7X",
    "place_name": "Spruce Grove North",
    "province": "Alberta",
    "lat": 53.549,
    "lng": -113.8995
  },
  {
    "postal_code": "T7Y",
    "place_name": "Spruce Grove South",
    "province": "Alberta",
    "lat": 53.4495,
    "lng": -113.7135
  },
  {
    "postal_code": "T7Z",
    "place_name": "Stony Plain",
    "province": "Alberta",
    "lat": 53.5202,
    "lng": -114.0135
  },
  {
    "postal_code": "T8A",
    "place_name": "Sherwood Park West",
    "province": "Alberta",
    "lat": 53.519,
    "lng": -113.3216
  },
  {
    "postal_code": "T8B",
    "place_name": "Sherwood Park Outer Southwest",
    "province": "Alberta",
    "lat": 53.4482,
    "lng": -113.2706
  },
  {
    "postal_code": "T8C",
    "place_name": "Sherwood Park Inner Southwest",
    "province": "Alberta",
    "lat": 53.4162,
    "lng": -113.148
  },
  {
    "postal_code": "T8E",
    "place_name": "Sherwood Park Central",
    "province": "Alberta",
    "lat": 53.4548,
    "lng": -113.0498
  },
  {
    "postal_code": "T8G",
    "place_name": "Sherwood Park East",
    "province": "Alberta",
    "lat": 53.4749,
    "lng": -112.9512
  },
  {
    "postal_code": "T8H",
    "place_name": "Sherwood Park Northwest",
    "province": "Alberta",
    "lat": 53.5462,
    "lng": -113.2562
  },
  {
    "postal_code": "T8L",
    "place_name": "Fort Saskatchewan",
    "province": "Alberta",
    "lat": 53.6916,
    "lng": -113.2286
  },
  {
    "postal_code": "T8N",
    "place_name": "St. Albert",
    "province": "Alberta",
    "lat": 53.6199,
    "lng": -113.6377
  },
  {
    "postal_code": "T8R",
    "place_name": "Morinville",
    "province": "Alberta",
    "lat": 53.7903,
    "lng": -113.646
  },
  {
    "postal_code": "T8S",
    "place_name": "Peace River",
    "province": "Alberta",
    "lat": 56.2539,
    "lng": -117.2849
  },
  {
    "postal_code": "T8V",
    "place_name": "Grande Prairie Central",
    "province": "Alberta",
    "lat": 55.1726,
    "lng": -118.7997
  },
  {
    "postal_code": "T8W",
    "place_name": "Grande Prairie South",
    "province": "Alberta",
    "lat": 55.1389,
    "lng": -118.773
  },
  {
    "postal_code": "T8X",
    "place_name": "Grande Prairie East",
    "province": "Alberta",
    "lat": 55.1749,
    "lng": -118.7633
  },
  {
    "postal_code": "T9A",
    "place_name": "Wetaskiwin",
    "province": "Alberta",
    "lat": 52.9741,
    "lng": -113.3646
  },
  {
    "postal_code": "T9C",
    "place_name": "Vegreville",
    "province": "Alberta",
    "lat": 53.4874,
    "lng": -112.0636
  },
  {
    "postal_code": "T9E",
    "place_name": "Leduc",
    "province": "Alberta",
    "lat": 53.2524,
    "lng": -113.5388
  },
  {
    "postal_code": "T9G",
    "place_name": "Devon",
    "province": "Alberta",
    "lat": 53.3632,
    "lng": -113.7286
  },
  {
    "postal_code": "T9H",
    "place_name": "Fort McMurray Outer Central",
    "province": "Alberta",
    "lat": 56.6977,
    "lng": -111.3389
  },
  {
    "postal_code": "T9J",
    "place_name": "Fort McMurray Inner Central",
    "province": "Alberta",
    "lat": 56.7057,
    "lng": -111.3723
  },
  {
    "postal_code": "T9K",
    "place_name": "Fort McMurray Northwest",
    "province": "Alberta",
    "lat": 56.7273,
    "lng": -111.4361
  },
  {
    "postal_code": "T9M",
    "place_name": "Cold Lake",
    "province": "Alberta",
    "lat": 54.4127,
    "lng": -110.2162
  },
  {
    "postal_code": "T9N",
    "place_name": "Bonnyville",
    "province": "Alberta",
    "lat": 54.2678,
    "lng": -110.7324
  },
  {
    "postal_code": "T9S",
    "place_name": "Athabasca",
    "province": "Alberta",
    "lat": 54.7139,
    "lng": -113.2942
  },
  {
    "postal_code": "T9V",
    "place_name": "Lloydminster",
    "province": "Alberta",
    "lat": 53.2786,
    "lng": -110.0233
  },
  {
    "postal_code": "T9W",
    "place_name": "Wainwright",
    "province": "Alberta",
    "lat": 52.8403,
    "lng": -110.8704
  },
  {
    "postal_code": "T9X",
    "place_name": "Vermilion",
    "province": "Alberta",
    "lat": 53.3515,
    "lng": -110.8451
  },
  {
    "postal_code": "V0A",
    "place_name": "Upper Columbia Region (Golden)",
    "province": "British Columbia",
    "lat": 50.5402,
    "lng": -116.0019
  },
  {
    "postal_code": "V0B",
    "place_name": "East Kootenays (Fernie)",
    "province": "British Columbia",
    "lat": 49.4539,
    "lng": -116.763
  },
  {
    "postal_code": "V0C",
    "place_name": "Northern British Columbia (Fort Nelson)",
    "province": "British Columbia",
    "lat": 56.2478,
    "lng": -120.8491
  },
  {
    "postal_code": "V0E",
    "place_name": "Central Okanagan and High Country (Revelstoke)",
    "province": "British Columbia",
    "lat": 50.9647,
    "lng": -119.1638
  },
  {
    "postal_code": "V0G",
    "place_name": "West Kootenays (Rossland)",
    "province": "British Columbia",
    "lat": 49.7332,
    "lng": -116.913
  },
  {
    "postal_code": "V0H",
    "place_name": "South Okanagan (Summerland)",
    "province": "British Columbia",
    "lat": 49.2357,
    "lng": -119.0117
  },
  {
    "postal_code": "V0J",
    "place_name": "Omineca and Yellowhead (Smithers)",
    "province": "British Columbia",
    "lat": 55.2046,
    "lng": -129.0828
  },
  {
    "postal_code": "V0K",
    "place_name": "Cariboo and West Okanagan (100 Mile House)",
    "province": "British Columbia",
    "lat": 50.7372,
    "lng": -121.2713
  },
  {
    "postal_code": "V0L",
    "place_name": "Chilcotin (Alexis Creek)",
    "province": "British Columbia",
    "lat": 52.4018,
    "lng": -124.0226
  },
  {
    "postal_code": "V0M",
    "place_name": "Harrison Lake Region (Agassiz)",
    "province": "British Columbia",
    "lat": 49.2341,
    "lng": -121.7705
  },
  {
    "postal_code": "V0N",
    "place_name": "North Island, Sunshine Coast, and Southern Gulf Islands (Whistler)",
    "province": "British Columbia",
    "lat": 50.5899,
    "lng": -126.9517
  },
  {
    "postal_code": "V0P",
    "place_name": "North Central Island and Bute Inlet Region (Gold River)",
    "province": "British Columbia",
    "lat": 50.898,
    "lng": -124.8633
  },
  {
    "postal_code": "V0R",
    "place_name": "Central Island (Chemainus)",
    "province": "British Columbia",
    "lat": 49.2818,
    "lng": -126.0627
  },
  {
    "postal_code": "V0S",
    "place_name": "Juan de Fuca Shore (Sooke)",
    "province": "British Columbia",
    "lat": 48.5788,
    "lng": -123.4637
  },
  {
    "postal_code": "V0T",
    "place_name": "Inside Passage and the Queen Charlottes (Queen Charlotte City)",
    "province": "British Columbia",
    "lat": 54.7992,
    "lng": -130.0782
  },
  {
    "postal_code": "V0V",
    "place_name": "Lower Skeena (Port Edward)",
    "province": "British Columbia",
    "lat": 53.4242,
    "lng": -129.263
  },
  {
    "postal_code": "V0W",
    "place_name": "Atlin Region (Atlin)",
    "province": "British Columbia",
    "lat": 59.4808,
    "lng": -133.6312
  },
  {
    "postal_code": "V0X",
    "place_name": "Similkameen (Hope)",
    "province": "British Columbia",
    "lat": 49.0538,
    "lng": -122.476
  },
  {
    "postal_code": "V1A",
    "place_name": "Kimberley",
    "province": "British Columbia",
    "lat": 49.6626,
    "lng": -115.9667
  },
  {
    "postal_code": "V1B",
    "place_name": "Vernon East",
    "province": "British Columbia",
    "lat": 50.2158,
    "lng": -119.2709
  },
  {
    "postal_code": "V1C",
    "place_name": "Cranbrook",
    "province": "British Columbia",
    "lat": 49.512,
    "lng": -115.7703
  },
  {
    "postal_code": "V1E",
    "place_name": "Salmon Arm",
    "province": "British Columbia",
    "lat": 50.6947,
    "lng": -119.2915
  },
  {
    "postal_code": "V1G",
    "place_name": "Dawson Creek",
    "province": "British Columbia",
    "lat": 55.7741,
    "lng": -120.2533
  },
  {
    "postal_code": "V1H",
    "place_name": "Vernon West",
    "province": "British Columbia",
    "lat": 50.2629,
    "lng": -119.3037
  },
  {
    "postal_code": "V1J",
    "place_name": "Fort St. John",
    "province": "British Columbia",
    "lat": 56.2306,
    "lng": -120.8277
  },
  {
    "postal_code": "V1K",
    "place_name": "Merritt",
    "province": "British Columbia",
    "lat": 50.1076,
    "lng": -120.7755
  },
  {
    "postal_code": "V1L",
    "place_name": "Nelson",
    "province": "British Columbia",
    "lat": 49.4832,
    "lng": -117.3031
  },
  {
    "postal_code": "V1M",
    "place_name": "Langley Township North",
    "province": "British Columbia",
    "lat": 49.164,
    "lng": -122.656
  },
  {
    "postal_code": "V1N",
    "place_name": "Castlegar",
    "province": "British Columbia",
    "lat": 49.3298,
    "lng": -117.6607
  },
  {
    "postal_code": "V1P",
    "place_name": "Kelowna East",
    "province": "British Columbia",
    "lat": 49.8808,
    "lng": -119.3647
  },
  {
    "postal_code": "V1R",
    "place_name": "Trail",
    "province": "British Columbia",
    "lat": 49.1135,
    "lng": -117.716
  },
  {
    "postal_code": "V1S",
    "place_name": "Kamloops Southwest",
    "province": "British Columbia",
    "lat": 50.6553,
    "lng": -120.3811
  },
  {
    "postal_code": "V1T",
    "place_name": "Vernon Central",
    "province": "British Columbia",
    "lat": 50.2533,
    "lng": -119.2798
  },
  {
    "postal_code": "V1V",
    "place_name": "Kelowna North",
    "province": "British Columbia",
    "lat": 49.929,
    "lng": -119.4676
  },
  {
    "postal_code": "V1W",
    "place_name": "Kelowna Southwest",
    "province": "British Columbia",
    "lat": 49.842,
    "lng": -119.4903
  },
  {
    "postal_code": "V1X",
    "place_name": "Kelowna East Central",
    "province": "British Columbia",
    "lat": 49.8754,
    "lng": -119.3958
  },
  {
    "postal_code": "V1Y",
    "place_name": "Kelowna Central",
    "province": "British Columbia",
    "lat": 49.8803,
    "lng": -119.5004
  },
  {
    "postal_code": "V1Z",
    "place_name": "Kelowna West",
    "province": "British Columbia",
    "lat": 49.88,
    "lng": -119.5355
  },
  {
    "postal_code": "V2A",
    "place_name": "Penticton",
    "province": "British Columbia",
    "lat": 49.5031,
    "lng": -119.5905
  },
  {
    "postal_code": "V2B",
    "place_name": "Kamloops Northwest",
    "province": "British Columbia",
    "lat": 50.6903,
    "lng": -120.3634
  },
  {
    "postal_code": "V2C",
    "place_name": "Kamloops Central and Southeast",
    "province": "British Columbia",
    "lat": 50.6764,
    "lng": -120.3399
  },
  {
    "postal_code": "V2E",
    "place_name": "Kamloops South and West",
    "province": "British Columbia",
    "lat": 50.6598,
    "lng": -120.3837
  },
  {
    "postal_code": "V2G",
    "place_name": "Williams Lake",
    "province": "British Columbia",
    "lat": 52.1276,
    "lng": -122.1271
  },
  {
    "postal_code": "V2H",
    "place_name": "Kamloops North",
    "province": "British Columbia",
    "lat": 50.6902,
    "lng": -120.0461
  },
  {
    "postal_code": "V2J",
    "place_name": "Quesnel",
    "province": "British Columbia",
    "lat": 52.9692,
    "lng": -122.5057
  },
  {
    "postal_code": "V2K",
    "place_name": "Prince George North",
    "province": "British Columbia",
    "lat": 53.9313,
    "lng": -122.7823
  },
  {
    "postal_code": "V2L",
    "place_name": "Prince George East Central",
    "province": "British Columbia",
    "lat": 53.9112,
    "lng": -122.728
  },
  {
    "postal_code": "V2M",
    "place_name": "Prince George West Central",
    "province": "British Columbia",
    "lat": 53.928,
    "lng": -122.7878
  },
  {
    "postal_code": "V2N",
    "place_name": "Prince George South",
    "province": "British Columbia",
    "lat": 53.9103,
    "lng": -122.7835
  },
  {
    "postal_code": "V2P",
    "place_name": "Chilliwack Central",
    "province": "British Columbia",
    "lat": 49.1551,
    "lng": -121.9459
  },
  {
    "postal_code": "V2R",
    "place_name": "Chilliwack West",
    "province": "British Columbia",
    "lat": 49.1409,
    "lng": -121.962
  },
  {
    "postal_code": "V2S",
    "place_name": "Abbotsford Southeast",
    "province": "British Columbia",
    "lat": 49.0312,
    "lng": -122.3012
  },
  {
    "postal_code": "V2T",
    "place_name": "Abbotsford Southwest",
    "province": "British Columbia",
    "lat": 49.0382,
    "lng": -122.335
  },
  {
    "postal_code": "V2V",
    "place_name": "Mission East",
    "province": "British Columbia",
    "lat": 49.1337,
    "lng": -122.3434
  },
  {
    "postal_code": "V2W",
    "place_name": "Maple Ridge East",
    "province": "British Columbia",
    "lat": 49.2201,
    "lng": -122.4985
  },
  {
    "postal_code": "V2X",
    "place_name": "Maple Ridge West",
    "province": "British Columbia",
    "lat": 49.2007,
    "lng": -122.6641
  },
  {
    "postal_code": "V2Y",
    "place_name": "Langley Township Northwest",
    "province": "British Columbia",
    "lat": 49.1175,
    "lng": -122.6684
  },
  {
    "postal_code": "V2Z",
    "place_name": "Langley Township Southwest",
    "province": "British Columbia",
    "lat": 49.0501,
    "lng": -122.6745
  },
  {
    "postal_code": "V3A",
    "place_name": "Langley City",
    "province": "British Columbia",
    "lat": 49.0764,
    "lng": -122.6797
  },
  {
    "postal_code": "V3B",
    "place_name": "Port Coquitlam Central",
    "province": "British Columbia",
    "lat": 49.2733,
    "lng": -122.7965
  },
  {
    "postal_code": "V3C",
    "place_name": "Port Coquitlam South",
    "province": "British Columbia",
    "lat": 49.2334,
    "lng": -122.77
  },
  {
    "postal_code": "V3E",
    "place_name": "Port Coquitlam North",
    "province": "British Columbia",
    "lat": 49.2796,
    "lng": -122.8105
  },
  {
    "postal_code": "V3G",
    "place_name": "Abbotsford East",
    "province": "British Columbia",
    "lat": 49.0625,
    "lng": -122.2457
  },
  {
    "postal_code": "V3H",
    "place_name": "Port Moody",
    "province": "British Columbia",
    "lat": 49.2707,
    "lng": -122.883
  },
  {
    "postal_code": "V3J",
    "place_name": "Coquitlam North",
    "province": "British Columbia",
    "lat": 49.2536,
    "lng": -122.9085
  },
  {
    "postal_code": "V3K",
    "place_name": "Coquitlam South",
    "province": "British Columbia",
    "lat": 49.2358,
    "lng": -122.8693
  },
  {
    "postal_code": "V3L",
    "place_name": "New Westminster Northeast",
    "province": "British Columbia",
    "lat": 49.2136,
    "lng": -122.8949
  },
  {
    "postal_code": "V3M",
    "place_name": "New Westminster Southwest (Includes Annacis Island)",
    "province": "British Columbia",
    "lat": 49.2007,
    "lng": -122.9074
  },
  {
    "postal_code": "V3N",
    "place_name": "Burnaby (East Big Bend / Stride Avenue / Edmonds / Cariboo-Armstrong)",
    "province": "British Columbia",
    "lat": 49.2201,
    "lng": -122.9478
  },
  {
    "postal_code": "V3R",
    "place_name": "Surrey North",
    "province": "British Columbia",
    "lat": 49.1641,
    "lng": -122.8193
  },
  {
    "postal_code": "V3S",
    "place_name": "Surrey East",
    "province": "British Columbia",
    "lat": 49.1011,
    "lng": -122.8141
  },
  {
    "postal_code": "V3T",
    "place_name": "Surrey Inner Northwest",
    "province": "British Columbia",
    "lat": 49.1783,
    "lng": -122.8665
  },
  {
    "postal_code": "V3V",
    "place_name": "Surrey Outer Northwest",
    "province": "British Columbia",
    "lat": 49.1647,
    "lng": -122.8487
  },
  {
    "postal_code": "V3W",
    "place_name": "Surrey Upper West",
    "province": "British Columbia",
    "lat": 49.0992,
    "lng": -122.8691
  },
  {
    "postal_code": "V3X",
    "place_name": "Surrey Lower West",
    "province": "British Columbia",
    "lat": 49.1173,
    "lng": -122.8234
  },
  {
    "postal_code": "V3Y",
    "place_name": "Pitt Meadows",
    "province": "British Columbia",
    "lat": 49.2273,
    "lng": -122.6883
  },
  {
    "postal_code": "V4A",
    "place_name": "Surrey Southwest",
    "province": "British Columbia",
    "lat": 49.0168,
    "lng": -122.7738
  },
  {
    "postal_code": "V4B",
    "place_name": "White Rock",
    "province": "British Columbia",
    "lat": 49.0268,
    "lng": -122.8369
  },
  {
    "postal_code": "V4C",
    "place_name": "Delta Northeast",
    "province": "British Columbia",
    "lat": 49.1348,
    "lng": -122.9131
  },
  {
    "postal_code": "V4E",
    "place_name": "Delta East",
    "province": "British Columbia",
    "lat": 49.0482,
    "lng": -122.9587
  },
  {
    "postal_code": "V4G",
    "place_name": "Delta East Central",
    "province": "British Columbia",
    "lat": 49.1367,
    "lng": -123.0115
  },
  {
    "postal_code": "V4K",
    "place_name": "Delta Central",
    "province": "British Columbia",
    "lat": 49.0798,
    "lng": -123.0882
  },
  {
    "postal_code": "V4L",
    "place_name": "Delta Southeast",
    "province": "British Columbia",
    "lat": 49.0023,
    "lng": -123.0368
  },
  {
    "postal_code": "V4M",
    "place_name": "Delta Southwest",
    "province": "British Columbia",
    "lat": 49.0025,
    "lng": -123.0746
  },
  {
    "postal_code": "V4N",
    "place_name": "Surrey Northeast",
    "province": "British Columbia",
    "lat": 49.1636,
    "lng": -122.7677
  },
  {
    "postal_code": "V4P",
    "place_name": "Surrey South",
    "province": "British Columbia",
    "lat": 49.0499,
    "lng": -122.804
  },
  {
    "postal_code": "V4R",
    "place_name": "Maple Ridge Northwest",
    "province": "British Columbia",
    "lat": 49.2225,
    "lng": -122.4984
  },
  {
    "postal_code": "V4S",
    "place_name": "Mission West",
    "province": "British Columbia",
    "lat": 49.1589,
    "lng": -122.3089
  },
  {
    "postal_code": "V4T",
    "place_name": "Westbank",
    "province": "British Columbia",
    "lat": 49.838,
    "lng": -119.6667
  },
  {
    "postal_code": "V4V",
    "place_name": "Winfield",
    "province": "British Columbia",
    "lat": 50.0734,
    "lng": -119.4444
  },
  {
    "postal_code": "V4W",
    "place_name": "Langley Township East",
    "province": "British Columbia",
    "lat": 49.1307,
    "lng": -122.5369
  },
  {
    "postal_code": "V4X",
    "place_name": "Abbotsford West",
    "province": "British Columbia",
    "lat": 49.0024,
    "lng": -122.4419
  },
  {
    "postal_code": "V4Z",
    "place_name": "Chilliwack East",
    "province": "British Columbia",
    "lat": 49.146,
    "lng": -121.9435
  },
  {
    "postal_code": "V5A",
    "place_name": "Burnaby (Government Road / Lake City / SFU / Burnaby Mountain)",
    "province": "British Columbia",
    "lat": 49.2869,
    "lng": -122.958
  },
  {
    "postal_code": "V5B",
    "place_name": "Burnaby (Parkcrest-Aubrey / Ardingley-Sprott)",
    "province": "British Columbia",
    "lat": 49.2846,
    "lng": -122.9914
  },
  {
    "postal_code": "V5C",
    "place_name": "Burnaby (Burnaby Heights / Willingdon Heights / West Central Valley)",
    "province": "British Columbia",
    "lat": 49.2848,
    "lng": -123.0222
  },
  {
    "postal_code": "V5E",
    "place_name": "Burnaby (Lakeview-Mayfield / Richmond Park / Kingsway-Beresford)",
    "province": "British Columbia",
    "lat": 49.2124,
    "lng": -122.9696
  },
  {
    "postal_code": "V5G",
    "place_name": "Burnaby (Cascade-Schou / Douglas-Gilpin)",
    "province": "British Columbia",
    "lat": 49.2591,
    "lng": -123.0226
  },
  {
    "postal_code": "V5H",
    "place_name": "Burnaby (Maywood / Marlborough / Oakalla / Windsor)",
    "province": "British Columbia",
    "lat": 49.2371,
    "lng": -123.0229
  },
  {
    "postal_code": "V5J",
    "place_name": "Burnaby (Suncrest / Sussex-Nelson / Clinton-Glenwood / West Big Bend)",
    "province": "British Columbia",
    "lat": 49.2218,
    "lng": -123.022
  },
  {
    "postal_code": "V5K",
    "place_name": "Vancouver (North Hastings- Sunrise)",
    "province": "British Columbia",
    "lat": 49.293,
    "lng": -123.0489
  },
  {
    "postal_code": "V5L",
    "place_name": "Vancouver (North Grandview- Woodlands)",
    "province": "British Columbia",
    "lat": 49.2835,
    "lng": -123.0786
  },
  {
    "postal_code": "V5M",
    "place_name": "Vancouver (South Hastings-Sunrise / North Renfrew- Collingwood)",
    "province": "British Columbia",
    "lat": 49.2695,
    "lng": -123.0556
  },
  {
    "postal_code": "V5N",
    "place_name": "Vancouver (South Grandview- Woodlands / NE Kensington)",
    "province": "British Columbia",
    "lat": 49.2699,
    "lng": -123.0765
  },
  {
    "postal_code": "V5P",
    "place_name": "Vancouver (SE Kensington / Victoria- Fraserview)",
    "province": "British Columbia",
    "lat": 49.2393,
    "lng": -123.0729
  },
  {
    "postal_code": "V5R",
    "place_name": "Vancouver (South Renfrew- Collingwood)",
    "province": "British Columbia",
    "lat": 49.2499,
    "lng": -123.0556
  },
  {
    "postal_code": "V5S",
    "place_name": "Vancouver (Killarney)",
    "province": "British Columbia",
    "lat": 49.2286,
    "lng": -123.057
  },
  {
    "postal_code": "V5T",
    "place_name": "Vancouver (East Mount Pleasant)",
    "province": "British Columbia",
    "lat": 49.2701,
    "lng": -123.1038
  },
  {
    "postal_code": "V5V",
    "place_name": "Vancouver (West Kensington / NE Riley Park- Little Mountain)",
    "province": "British Columbia",
    "lat": 49.2558,
    "lng": -123.1037
  },
  {
    "postal_code": "V5W",
    "place_name": "Vancouver (SE Riley Park- Little Mountain / SW Kensington / NE Oakridge / North Sunset)",
    "province": "British Columbia",
    "lat": 49.2396,
    "lng": -123.0984
  },
  {
    "postal_code": "V5X",
    "place_name": "Vancouver (SE Oakridge / East Marpole / South Sunset)",
    "province": "British Columbia",
    "lat": 49.2249,
    "lng": -123.1052
  },
  {
    "postal_code": "V5Y",
    "place_name": "Vancouver (West Mount Pleasant / West Riley Park- Little Mountain)",
    "province": "British Columbia",
    "lat": 49.2702,
    "lng": -123.1017
  },
  {
    "postal_code": "V5Z",
    "place_name": "Vancouver (East Fairview / South Cambie)",
    "province": "British Columbia",
    "lat": 49.2658,
    "lng": -123.1151
  },
  {
    "postal_code": "V6A",
    "place_name": "Vancouver (Strathcona / Chinatown / Downtown Eastside)",
    "province": "British Columbia",
    "lat": 49.2862,
    "lng": -123.0925
  },
  {
    "postal_code": "V6B",
    "place_name": "Vancouver (NE Downtown / Harbour Centre / Gastown / Yaletown)",
    "province": "British Columbia",
    "lat": 49.2836,
    "lng": -123.1041
  },
  {
    "postal_code": "V6C",
    "place_name": "Vancouver (Waterfront / Coal Harbour / Canada Place)",
    "province": "British Columbia",
    "lat": 49.2857,
    "lng": -123.1142
  },
  {
    "postal_code": "V6E",
    "place_name": "Vancouver (South West End)",
    "province": "British Columbia",
    "lat": 49.2848,
    "lng": -123.1228
  },
  {
    "postal_code": "V6G",
    "place_name": "Vancouver (North West End / Stanley Park)",
    "province": "British Columbia",
    "lat": 49.289,
    "lng": -123.1294
  },
  {
    "postal_code": "V6H",
    "place_name": "Vancouver (West Fairview / Granville Island / NE Shaughnessy)",
    "province": "British Columbia",
    "lat": 49.2661,
    "lng": -123.1276
  },
  {
    "postal_code": "V6J",
    "place_name": "Vancouver (NW Shaughnessy / East Kitsilano / Quilchena)",
    "province": "British Columbia",
    "lat": 49.2768,
    "lng": -123.1469
  },
  {
    "postal_code": "V6K",
    "place_name": "Vancouver (Central Kitsilano)",
    "province": "British Columbia",
    "lat": 49.2738,
    "lng": -123.161
  },
  {
    "postal_code": "V6L",
    "place_name": "Vancouver (NW Arbutus Ridge)",
    "province": "British Columbia",
    "lat": 49.2571,
    "lng": -123.1662
  },
  {
    "postal_code": "V6M",
    "place_name": "Vancouver (South Shaughnessy / NW Oakridge / NE Kerrisdale / SE Arbutus Ridge)",
    "province": "British Columbia",
    "lat": 49.2417,
    "lng": -123.1293
  },
  {
    "postal_code": "V6N",
    "place_name": "Vancouver (Dunbar- Southlands / Musqueam)",
    "province": "British Columbia",
    "lat": 49.2376,
    "lng": -123.1639
  },
  {
    "postal_code": "V6P",
    "place_name": "Vancouver (SE Kerrisdale / SW Oakridge / West Marpole)",
    "province": "British Columbia",
    "lat": 49.2254,
    "lng": -123.1176
  },
  {
    "postal_code": "V6R",
    "place_name": "Vancouver (West Kitsilano / Jericho)",
    "province": "British Columbia",
    "lat": 49.273,
    "lng": -123.185
  },
  {
    "postal_code": "V6S",
    "place_name": "Vancouver (Chaldecutt / South University Endowment Lands)",
    "province": "British Columbia",
    "lat": 49.2574,
    "lng": -123.1836
  },
  {
    "postal_code": "V6T",
    "place_name": "Vancouver (UBC)",
    "province": "British Columbia",
    "lat": 49.2765,
    "lng": -123.2177
  },
  {
    "postal_code": "V6V",
    "place_name": "Richmond Northeast",
    "province": "British Columbia",
    "lat": 49.1699,
    "lng": -123.0912
  },
  {
    "postal_code": "V6W",
    "place_name": "Richmond Southeast",
    "province": "British Columbia",
    "lat": 49.1261,
    "lng": -123.0897
  },
  {
    "postal_code": "V6X",
    "place_name": "Richmond North",
    "province": "British Columbia",
    "lat": 49.1701,
    "lng": -123.1438
  },
  {
    "postal_code": "V6Y",
    "place_name": "Richmond Central",
    "province": "British Columbia",
    "lat": 49.1483,
    "lng": -123.1469
  },
  {
    "postal_code": "V6Z",
    "place_name": "Vancouver (SW Downtown)",
    "province": "British Columbia",
    "lat": 49.2814,
    "lng": -123.12
  },
  {
    "postal_code": "V7A",
    "place_name": "Richmond South",
    "province": "British Columbia",
    "lat": 49.1467,
    "lng": -123.1463
  },
  {
    "postal_code": "V7B",
    "place_name": "Richmond (Sea Island / YVR)",
    "province": "British Columbia",
    "lat": 49.178,
    "lng": -123.1701
  },
  {
    "postal_code": "V7C",
    "place_name": "Richmond West",
    "province": "British Columbia",
    "lat": 49.1745,
    "lng": -123.1978
  },
  {
    "postal_code": "V7E",
    "place_name": "Richmond Southwest",
    "province": "British Columbia",
    "lat": 49.1476,
    "lng": -123.1897
  },
  {
    "postal_code": "V7G",
    "place_name": "North Vancouver Outer East",
    "province": "British Columbia",
    "lat": 49.304,
    "lng": -122.9689
  },
  {
    "postal_code": "V7H",
    "place_name": "North Vancouver Inner East",
    "province": "British Columbia",
    "lat": 49.3011,
    "lng": -123.0205
  },
  {
    "postal_code": "V7J",
    "place_name": "North Vancouver East Central",
    "province": "British Columbia",
    "lat": 49.3016,
    "lng": -123.0309
  },
  {
    "postal_code": "V7K",
    "place_name": "North Vancouver North Central",
    "province": "British Columbia",
    "lat": 49.3322,
    "lng": -123.0518
  },
  {
    "postal_code": "V7L",
    "place_name": "North Vancouver South Central",
    "province": "British Columbia",
    "lat": 49.3042,
    "lng": -123.0651
  },
  {
    "postal_code": "V7M",
    "place_name": "North Vancouver Southwest Central",
    "province": "British Columbia",
    "lat": 49.3111,
    "lng": -123.0798
  },
  {
    "postal_code": "V7N",
    "place_name": "North Vancouver Northwest Central",
    "province": "British Columbia",
    "lat": 49.3325,
    "lng": -123.0674
  },
  {
    "postal_code": "V7P",
    "place_name": "North Vancouver Southwest",
    "province": "British Columbia",
    "lat": 49.3181,
    "lng": -123.096
  },
  {
    "postal_code": "V7R",
    "place_name": "North Vancouver Northwest",
    "province": "British Columbia",
    "lat": 49.3328,
    "lng": -123.1043
  },
  {
    "postal_code": "V7S",
    "place_name": "West Vancouver North",
    "province": "British Columbia",
    "lat": 49.3585,
    "lng": -123.1186
  },
  {
    "postal_code": "V7T",
    "place_name": "West Vancouver Southeast",
    "province": "British Columbia",
    "lat": 49.324,
    "lng": -123.1036
  },
  {
    "postal_code": "V7V",
    "place_name": "West Vancouver South",
    "province": "British Columbia",
    "lat": 49.3271,
    "lng": -123.1578
  },
  {
    "postal_code": "V7W",
    "place_name": "West Vancouver West",
    "province": "British Columbia",
    "lat": 49.3465,
    "lng": -123.238
  },
  {
    "postal_code": "V7X",
    "place_name": "Vancouver (Bentall Centre)",
    "province": "British Columbia",
    "lat": 49.2935,
    "lng": -123.1162
  },
  {
    "postal_code": "V7Y",
    "place_name": "Vancouver (Pacific Centre)",
    "province": "British Columbia",
    "lat": 49.2816,
    "lng": -123.1247
  },
  {
    "postal_code": "V8A",
    "place_name": "Powell River",
    "province": "British Columbia",
    "lat": 49.8021,
    "lng": -124.5124
  },
  {
    "postal_code": "V8B",
    "place_name": "Squamish",
    "province": "British Columbia",
    "lat": 49.7497,
    "lng": -123.136
  },
  {
    "postal_code": "V8C",
    "place_name": "Kitimat",
    "province": "British Columbia",
    "lat": 54.0662,
    "lng": -128.6508
  },
  {
    "postal_code": "V8G",
    "place_name": "Terrace",
    "province": "British Columbia",
    "lat": 54.5058,
    "lng": -128.5823
  },
  {
    "postal_code": "V8J",
    "place_name": "Prince Rupert",
    "province": "British Columbia",
    "lat": 54.3146,
    "lng": -130.3413
  },
  {
    "postal_code": "V8K",
    "place_name": "Saltspring Island",
    "province": "British Columbia",
    "lat": 48.9145,
    "lng": -123.5657
  },
  {
    "postal_code": "V8L",
    "place_name": "Sidney",
    "province": "British Columbia",
    "lat": 48.6128,
    "lng": -123.4198
  },
  {
    "postal_code": "V8M",
    "place_name": "Central Saanich",
    "province": "British Columbia",
    "lat": 48.566,
    "lng": -123.4579
  },
  {
    "postal_code": "V8N",
    "place_name": "Saanich East",
    "province": "British Columbia",
    "lat": 48.471,
    "lng": -123.3438
  },
  {
    "postal_code": "V8P",
    "place_name": "Saanich Southeast",
    "province": "British Columbia",
    "lat": 48.4458,
    "lng": -123.3328
  },
  {
    "postal_code": "V8R",
    "place_name": "Oak Bay North",
    "province": "British Columbia",
    "lat": 48.4266,
    "lng": -123.3444
  },
  {
    "postal_code": "V8S",
    "place_name": "Oak Bay South",
    "province": "British Columbia",
    "lat": 48.4061,
    "lng": -123.3504
  },
  {
    "postal_code": "V8T",
    "place_name": "Victoria North",
    "province": "British Columbia",
    "lat": 48.4278,
    "lng": -123.3574
  },
  {
    "postal_code": "V8V",
    "place_name": "Victoria South",
    "province": "British Columbia",
    "lat": 48.4192,
    "lng": -123.3856
  },
  {
    "postal_code": "V8W",
    "place_name": "Victoria Central British Columbia Provincial Government",
    "province": "British Columbia",
    "lat": 48.4202,
    "lng": -123.3671
  },
  {
    "postal_code": "V8X",
    "place_name": "Saanich South",
    "province": "British Columbia",
    "lat": 48.4488,
    "lng": -123.3501
  },
  {
    "postal_code": "V8Y",
    "place_name": "Saanich North",
    "province": "British Columbia",
    "lat": 48.501,
    "lng": -123.3804
  },
  {
    "postal_code": "V8Z",
    "place_name": "Saanich Central",
    "province": "British Columbia",
    "lat": 48.4449,
    "lng": -123.3745
  },
  {
    "postal_code": "V9A",
    "place_name": "Esquimalt",
    "province": "British Columbia",
    "lat": 48.449,
    "lng": -123.3842
  },
  {
    "postal_code": "V9B",
    "place_name": "Highlands",
    "province": "British Columbia",
    "lat": 48.4519,
    "lng": -123.4417
  },
  {
    "postal_code": "V9C",
    "place_name": "Metchosin",
    "province": "British Columbia",
    "lat": 48.4544,
    "lng": -123.458
  },
  {
    "postal_code": "V9E",
    "place_name": "Saanich West",
    "province": "British Columbia",
    "lat": 48.4633,
    "lng": -123.4538
  },
  {
    "postal_code": "V9G",
    "place_name": "Ladysmith",
    "province": "British Columbia",
    "lat": 50.089,
    "lng": -125.3444
  },
  {
    "postal_code": "V9H",
    "place_name": "Campbell River Outskirts",
    "province": "British Columbia",
    "lat": 49.9164,
    "lng": -125.1875
  },
  {
    "postal_code": "V9J",
    "place_name": "Courtenay Northern Outskirts",
    "province": "British Columbia",
    "lat": 49.8684,
    "lng": -125.1252
  },
  {
    "postal_code": "V9K",
    "place_name": "Qualicum Beach",
    "province": "British Columbia",
    "lat": 49.3506,
    "lng": -124.409
  },
  {
    "postal_code": "V9L",
    "place_name": "Duncan",
    "province": "British Columbia",
    "lat": 48.7768,
    "lng": -123.7077
  },
  {
    "postal_code": "V9M",
    "place_name": "Comox",
    "province": "British Columbia",
    "lat": 49.6728,
    "lng": -124.947
  },
  {
    "postal_code": "V9N",
    "place_name": "Courtenay Central",
    "province": "British Columbia",
    "lat": 49.686,
    "lng": -125.0191
  },
  {
    "postal_code": "V9P",
    "place_name": "Parksville",
    "province": "British Columbia",
    "lat": 49.3233,
    "lng": -124.3227
  },
  {
    "postal_code": "V9R",
    "place_name": "Nanaimo South",
    "province": "British Columbia",
    "lat": 49.136,
    "lng": -123.9483
  },
  {
    "postal_code": "V9S",
    "place_name": "Nanaimo Central",
    "province": "British Columbia",
    "lat": 49.174,
    "lng": -123.9422
  },
  {
    "postal_code": "V9T",
    "place_name": "Nanaimo North",
    "province": "British Columbia",
    "lat": 49.2079,
    "lng": -123.979
  },
  {
    "postal_code": "V9V",
    "place_name": "Nanaimo Northwest",
    "province": "British Columbia",
    "lat": 49.2477,
    "lng": -124.0501
  },
  {
    "postal_code": "V9W",
    "place_name": "Campbell River Central",
    "province": "British Columbia",
    "lat": 50.0059,
    "lng": -125.2343
  },
  {
    "postal_code": "V9X",
    "place_name": "Cedar",
    "province": "British Columbia",
    "lat": 49.1207,
    "lng": -123.9284
  },
  {
    "postal_code": "V9Y",
    "place_name": "Port Alberni",
    "province": "British Columbia",
    "lat": 49.2197,
    "lng": -124.8101
  },
  {
    "postal_code": "R0A",
    "place_name": "Southeastern Manitoba (Lorette)",
    "province": "Manitoba",
    "lat": 49.0563,
    "lng": -96.1126
  },
  {
    "postal_code": "R0B",
    "place_name": "Northern Manitoba (Norway House)",
    "province": "Manitoba",
    "lat": 55.8244,
    "lng": -98.8348
  },
  {
    "postal_code": "R0C",
    "place_name": "North Interlake (Stonewall)",
    "province": "Manitoba",
    "lat": 50.7011,
    "lng": -97.1462
  },
  {
    "postal_code": "R0E",
    "place_name": "Eastern Manitoba (Beausejour)",
    "province": "Manitoba",
    "lat": 50.4275,
    "lng": -95.3439
  },
  {
    "postal_code": "R0G",
    "place_name": "South Central Manitoba (Altona)",
    "province": "Manitoba",
    "lat": 49.0698,
    "lng": -98.7619
  },
  {
    "postal_code": "R0H",
    "place_name": "South Interlake (MacGregor)",
    "province": "Manitoba",
    "lat": 49.7223,
    "lng": -99.0009
  },
  {
    "postal_code": "R0J",
    "place_name": "Riding Mountain (Neepawa)",
    "province": "Manitoba",
    "lat": 50.7774,
    "lng": -99.5546
  },
  {
    "postal_code": "R0K",
    "place_name": "Brandon Region (Killarney)",
    "province": "Manitoba",
    "lat": 49.0694,
    "lng": -99.527
  },
  {
    "postal_code": "R0L",
    "place_name": "Western Manitoba (Swan River)",
    "province": "Manitoba",
    "lat": 52.4175,
    "lng": -100.9577
  },
  {
    "postal_code": "R0M",
    "place_name": "Southwestern Manitoba (Virden)",
    "province": "Manitoba",
    "lat": 50.0226,
    "lng": -101.3637
  },
  {
    "postal_code": "R1A",
    "place_name": "Selkirk",
    "province": "Manitoba",
    "lat": 50.1483,
    "lng": -96.8756
  },
  {
    "postal_code": "R1B",
    "place_name": "Lockport",
    "province": "Manitoba",
    "lat": 50.0958,
    "lng": -96.9329
  },
  {
    "postal_code": "R1N",
    "place_name": "Portage la Prairie",
    "province": "Manitoba",
    "lat": 49.9694,
    "lng": -98.3131
  },
  {
    "postal_code": "R2C",
    "place_name": "Winnipeg (Transcona)",
    "province": "Manitoba",
    "lat": 49.9069,
    "lng": -97.0011
  },
  {
    "postal_code": "R2E",
    "place_name": "East St. Paul",
    "province": "Manitoba",
    "lat": 49.9611,
    "lng": -97.0212
  },
  {
    "postal_code": "R2G",
    "place_name": "Winnipeg (River East North)",
    "province": "Manitoba",
    "lat": 49.9465,
    "lng": -97.0585
  },
  {
    "postal_code": "R2H",
    "place_name": "Winnipeg (St. Boniface NW)",
    "province": "Manitoba",
    "lat": 49.8792,
    "lng": -97.1062
  },
  {
    "postal_code": "R2J",
    "place_name": "Winnipeg (St. Boniface NE)",
    "province": "Manitoba",
    "lat": 49.8717,
    "lng": -97.0765
  },
  {
    "postal_code": "R2K",
    "place_name": "Winnipeg (River East Central)",
    "province": "Manitoba",
    "lat": 49.9225,
    "lng": -97.0947
  },
  {
    "postal_code": "R2L",
    "place_name": "Winnipeg (River East South)",
    "province": "Manitoba",
    "lat": 49.9069,
    "lng": -97.0845
  },
  {
    "postal_code": "R2M",
    "place_name": "Winnipeg (St. Vital North)",
    "province": "Manitoba",
    "lat": 49.853,
    "lng": -97.0998
  },
  {
    "postal_code": "R2N",
    "place_name": "Winnipeg (St. Vital SW)",
    "province": "Manitoba",
    "lat": 49.819,
    "lng": -97.0926
  },
  {
    "postal_code": "R2P",
    "place_name": "Winnipeg (Seven Oaks West)",
    "province": "Manitoba",
    "lat": 49.9585,
    "lng": -97.1796
  },
  {
    "postal_code": "R2R",
    "place_name": "Winnipeg (Inkster West)",
    "province": "Manitoba",
    "lat": 49.9324,
    "lng": -97.1988
  },
  {
    "postal_code": "R2V",
    "place_name": "Winnipeg (Seven Oaks East)",
    "province": "Manitoba",
    "lat": 49.9378,
    "lng": -97.1183
  },
  {
    "postal_code": "R2W",
    "place_name": "Winnipeg (Point Douglas East)",
    "province": "Manitoba",
    "lat": 49.9241,
    "lng": -97.1292
  },
  {
    "postal_code": "R2X",
    "place_name": "Winnipeg (Point Douglas West / Inkster East)",
    "province": "Manitoba",
    "lat": 49.928,
    "lng": -97.1618
  },
  {
    "postal_code": "R2Y",
    "place_name": "Winnipeg (St. James-Assiniboia NW)",
    "province": "Manitoba",
    "lat": 49.8963,
    "lng": -97.297
  },
  {
    "postal_code": "R3A",
    "place_name": "Winnipeg (Centennial)",
    "province": "Manitoba",
    "lat": 49.9004,
    "lng": -97.1457
  },
  {
    "postal_code": "R3B",
    "place_name": "Winnipeg (Chinatown / Civic Centre / Exchange District)",
    "province": "Manitoba",
    "lat": 49.8972,
    "lng": -97.1366
  },
  {
    "postal_code": "R3C",
    "place_name": "Winnipeg (Broadway / The Forks / Portage and Main) Manitoba Provincial Government",
    "province": "Manitoba",
    "lat": 49.8788,
    "lng": -97.159
  },
  {
    "postal_code": "R3E",
    "place_name": "Winnipeg (Sargent Park / Daniel McIntyre / Inkster SE)",
    "province": "Manitoba",
    "lat": 49.9139,
    "lng": -97.1847
  },
  {
    "postal_code": "R3G",
    "place_name": "Winnipeg (Minto / St. Mathews / Wolseley)",
    "province": "Manitoba",
    "lat": 49.8826,
    "lng": -97.1623
  },
  {
    "postal_code": "R3H",
    "place_name": "Winnipeg (St. James-Assiniboia NE / YWG)",
    "province": "Manitoba",
    "lat": 49.8971,
    "lng": -97.2163
  },
  {
    "postal_code": "R3J",
    "place_name": "Winnipeg (St. James-Assiniboia SE)",
    "province": "Manitoba",
    "lat": 49.8858,
    "lng": -97.2601
  },
  {
    "postal_code": "R3K",
    "place_name": "Winnipeg (St. James-Assiniboia SW)",
    "province": "Manitoba",
    "lat": 49.8811,
    "lng": -97.3194
  },
  {
    "postal_code": "R3L",
    "place_name": "Winnipeg (River Heights East)",
    "province": "Manitoba",
    "lat": 49.8671,
    "lng": -97.1225
  },
  {
    "postal_code": "R3M",
    "place_name": "Winnipeg (River Heights Central)",
    "province": "Manitoba",
    "lat": 49.8663,
    "lng": -97.1639
  },
  {
    "postal_code": "R3N",
    "place_name": "Winnipeg (River Heights West)",
    "province": "Manitoba",
    "lat": 49.8722,
    "lng": -97.1888
  },
  {
    "postal_code": "R3P",
    "place_name": "Winnipeg (Fort Garry NW / Tuxedo)",
    "province": "Manitoba",
    "lat": 49.834,
    "lng": -97.1865
  },
  {
    "postal_code": "R3R",
    "place_name": "Winnipeg (Assiniboine South / Betsworth)",
    "province": "Manitoba",
    "lat": 49.854,
    "lng": -97.2712
  },
  {
    "postal_code": "R3S",
    "place_name": "Winnipeg (Wilkes South)",
    "province": "Manitoba",
    "lat": 49.842,
    "lng": -97.3083
  },
  {
    "postal_code": "R3T",
    "place_name": "Winnipeg (Fort Garry NE / University of Manitoba)",
    "province": "Manitoba",
    "lat": 49.849,
    "lng": -97.1497
  },
  {
    "postal_code": "R3V",
    "place_name": "Winnipeg (Fort Garry South)",
    "province": "Manitoba",
    "lat": 49.7732,
    "lng": -97.1561
  },
  {
    "postal_code": "R3W",
    "place_name": "Winnipeg (Grassie / Pequis)",
    "province": "Manitoba",
    "lat": 49.8968,
    "lng": -97.0279
  },
  {
    "postal_code": "R3X",
    "place_name": "Winnipeg (St. Boniface South / St. Vital SE)",
    "province": "Manitoba",
    "lat": 49.8378,
    "lng": -97.0675
  },
  {
    "postal_code": "R3Y",
    "place_name": "Winnipeg (Fort Garry West)",
    "province": "Manitoba",
    "lat": 49.8275,
    "lng": -97.183
  },
  {
    "postal_code": "R4A",
    "place_name": "West St. Paul",
    "province": "Manitoba",
    "lat": 49.977,
    "lng": -97.0633
  },
  {
    "postal_code": "R4H",
    "place_name": "Headingley East",
    "province": "Manitoba",
    "lat": 49.8628,
    "lng": -97.3348
  },
  {
    "postal_code": "R4J",
    "place_name": "Headingley West",
    "province": "Manitoba",
    "lat": 49.8987,
    "lng": -97.3843
  },
  {
    "postal_code": "R4K",
    "place_name": "Cartier",
    "province": "Manitoba",
    "lat": 49.8298,
    "lng": -97.7549
  },
  {
    "postal_code": "R4L",
    "place_name": "St. Francois Xavier",
    "province": "Manitoba",
    "lat": 49.8943,
    "lng": -97.5178
  },
  {
    "postal_code": "R5A",
    "place_name": "St. Adolphe",
    "province": "Manitoba",
    "lat": 49.7082,
    "lng": -96.9867
  },
  {
    "postal_code": "R5G",
    "place_name": "Steinbach",
    "province": "Manitoba",
    "lat": 49.5264,
    "lng": -96.6867
  },
  {
    "postal_code": "R5H",
    "place_name": "Ste. Anne",
    "province": "Manitoba",
    "lat": 49.6667,
    "lng": -96.648
  },
  {
    "postal_code": "R6M",
    "place_name": "Morden",
    "province": "Manitoba",
    "lat": 49.1861,
    "lng": -98.1204
  },
  {
    "postal_code": "R6W",
    "place_name": "Winkler",
    "province": "Manitoba",
    "lat": 49.1859,
    "lng": -97.9396
  },
  {
    "postal_code": "R7A",
    "place_name": "Brandon Southeast",
    "province": "Manitoba",
    "lat": 49.8431,
    "lng": -99.9452
  },
  {
    "postal_code": "R7B",
    "place_name": "Brandon Southwest",
    "province": "Manitoba",
    "lat": 49.8373,
    "lng": -99.9747
  },
  {
    "postal_code": "R7C",
    "place_name": "Brandon North",
    "province": "Manitoba",
    "lat": 49.8688,
    "lng": -99.9684
  },
  {
    "postal_code": "R7N",
    "place_name": "Dauphin",
    "province": "Manitoba",
    "lat": 51.1465,
    "lng": -100.0421
  },
  {
    "postal_code": "R8A",
    "place_name": "Flin Flon",
    "province": "Manitoba",
    "lat": 54.76,
    "lng": -101.8704
  },
  {
    "postal_code": "R8N",
    "place_name": "Thompson",
    "province": "Manitoba",
    "lat": 55.7428,
    "lng": -97.8779
  },
  {
    "postal_code": "R9A",
    "place_name": "The Pas",
    "province": "Manitoba",
    "lat": 53.8228,
    "lng": -101.2356
  },
  {
    "postal_code": "E1A",
    "place_name": "Dieppe Moncton East",
    "province": "New Brunswick",
    "lat": 46.0625,
    "lng": -64.7105
  },
  {
    "postal_code": "E1B",
    "place_name": "Riverview",
    "province": "New Brunswick",
    "lat": 46.0738,
    "lng": -64.755
  },
  {
    "postal_code": "E1C",
    "place_name": "Moncton Central",
    "province": "New Brunswick",
    "lat": 46.0888,
    "lng": -64.7723
  },
  {
    "postal_code": "E1E",
    "place_name": "Moncton West",
    "province": "New Brunswick",
    "lat": 46.0599,
    "lng": -64.844
  },
  {
    "postal_code": "E1G",
    "place_name": "Moncton Northwest",
    "province": "New Brunswick",
    "lat": 46.1117,
    "lng": -64.834
  },
  {
    "postal_code": "E1H",
    "place_name": "Lakeville, Shediac Bridge",
    "province": "New Brunswick",
    "lat": 46.1506,
    "lng": -64.6799
  },
  {
    "postal_code": "E1J",
    "place_name": "Coverdale",
    "province": "New Brunswick",
    "lat": 45.9829,
    "lng": -64.8634
  },
  {
    "postal_code": "E1N",
    "place_name": "Miramichi South",
    "province": "New Brunswick",
    "lat": 47.0155,
    "lng": -65.5071
  },
  {
    "postal_code": "E1V",
    "place_name": "Miramichi North",
    "province": "New Brunswick",
    "lat": 47.0085,
    "lng": -65.5833
  },
  {
    "postal_code": "E1W",
    "place_name": "Caraquet",
    "province": "New Brunswick",
    "lat": 47.7624,
    "lng": -65.0324
  },
  {
    "postal_code": "E1X",
    "place_name": "Tracadie-Sheila",
    "province": "New Brunswick",
    "lat": 47.4883,
    "lng": -64.9189
  },
  {
    "postal_code": "E2A",
    "place_name": "Bathurst",
    "province": "New Brunswick",
    "lat": 47.6605,
    "lng": -65.6414
  },
  {
    "postal_code": "E2E",
    "place_name": "Rothesay, Quispamsis",
    "province": "New Brunswick",
    "lat": 45.4165,
    "lng": -65.9913
  },
  {
    "postal_code": "E2G",
    "place_name": "Quispamsis",
    "province": "New Brunswick",
    "lat": 45.4397,
    "lng": -65.9392
  },
  {
    "postal_code": "E2H",
    "place_name": "Saint John Northeast, Renforth",
    "province": "New Brunswick",
    "lat": 45.3481,
    "lng": -66.0186
  },
  {
    "postal_code": "E2J",
    "place_name": "Saint John East",
    "province": "New Brunswick",
    "lat": 45.286,
    "lng": -66.0421
  },
  {
    "postal_code": "E2K",
    "place_name": "Saint John North",
    "province": "New Brunswick",
    "lat": 45.2746,
    "lng": -66.0871
  },
  {
    "postal_code": "E2L",
    "place_name": "Saint John Central",
    "province": "New Brunswick",
    "lat": 45.2742,
    "lng": -66.0645
  },
  {
    "postal_code": "E2M",
    "place_name": "Saint John West",
    "province": "New Brunswick",
    "lat": 45.2758,
    "lng": -66.0845
  },
  {
    "postal_code": "E2N",
    "place_name": "Saint John Lakewood",
    "province": "New Brunswick",
    "lat": 45.3151,
    "lng": -65.9615
  },
  {
    "postal_code": "E2P",
    "place_name": "Saint John Red Head",
    "province": "New Brunswick",
    "lat": 45.2488,
    "lng": -66.0025
  },
  {
    "postal_code": "E2R",
    "place_name": "Saint John Grandview",
    "province": "New Brunswick",
    "lat": 45.2735,
    "lng": -66.0099
  },
  {
    "postal_code": "E2S",
    "place_name": "Saint John Loch Lomond",
    "province": "New Brunswick",
    "lat": 45.3679,
    "lng": -65.9564
  },
  {
    "postal_code": "E2V",
    "place_name": "Oromocto",
    "province": "New Brunswick",
    "lat": 45.8509,
    "lng": -66.467
  },
  {
    "postal_code": "E3A",
    "place_name": "Fredericton North",
    "province": "New Brunswick",
    "lat": 45.9784,
    "lng": -66.6905
  },
  {
    "postal_code": "E3B",
    "place_name": "Fredericton South New Brunswick Provincial Government",
    "province": "New Brunswick",
    "lat": 45.9535,
    "lng": -66.6704
  },
  {
    "postal_code": "E3C",
    "place_name": "Fredericton Southwest, New Maryland",
    "province": "New Brunswick",
    "lat": 45.9356,
    "lng": -66.6609
  },
  {
    "postal_code": "E3E",
    "place_name": "Kingsclear",
    "province": "New Brunswick",
    "lat": 45.8134,
    "lng": -66.932
  },
  {
    "postal_code": "E3L",
    "place_name": "St. Stephen",
    "province": "New Brunswick",
    "lat": 45.1728,
    "lng": -67.2946
  },
  {
    "postal_code": "E3N",
    "place_name": "Campbellton",
    "province": "New Brunswick",
    "lat": 48.0091,
    "lng": -66.6707
  },
  {
    "postal_code": "E3V",
    "place_name": "Edmundston",
    "province": "New Brunswick",
    "lat": 47.3614,
    "lng": -68.3218
  },
  {
    "postal_code": "E3Y",
    "place_name": "Grand Falls Northeast",
    "province": "New Brunswick",
    "lat": 47.052,
    "lng": -67.7368
  },
  {
    "postal_code": "E3Z",
    "place_name": "Grand Falls Central",
    "province": "New Brunswick",
    "lat": 47.0471,
    "lng": -67.7527
  },
  {
    "postal_code": "E4A",
    "place_name": "Bathurst",
    "province": "New Brunswick",
    "lat": 46.1655,
    "lng": -65.872
  },
  {
    "postal_code": "E4B",
    "place_name": "Minto",
    "province": "New Brunswick",
    "lat": 45.9393,
    "lng": -66.09
  },
  {
    "postal_code": "E4C",
    "place_name": "Youngs Cove",
    "province": "New Brunswick",
    "lat": 45.808,
    "lng": -65.9652
  },
  {
    "postal_code": "E4E",
    "place_name": "Sussex",
    "province": "New Brunswick",
    "lat": 45.7223,
    "lng": -65.5108
  },
  {
    "postal_code": "E4G",
    "place_name": "Smiths Creek",
    "province": "New Brunswick",
    "lat": 45.9078,
    "lng": -65.5334
  },
  {
    "postal_code": "E4H",
    "place_name": "Hillsborough",
    "province": "New Brunswick",
    "lat": 45.9078,
    "lng": -64.8245
  },
  {
    "postal_code": "E4J",
    "place_name": "Salisbury",
    "province": "New Brunswick",
    "lat": 45.9787,
    "lng": -64.9898
  },
  {
    "postal_code": "E4K",
    "place_name": "Dorchester",
    "province": "New Brunswick",
    "lat": 46.0477,
    "lng": -64.6202
  },
  {
    "postal_code": "E4L",
    "place_name": "Sackville",
    "province": "New Brunswick",
    "lat": 45.8919,
    "lng": -64.3699
  },
  {
    "postal_code": "E4M",
    "place_name": "Bayfield",
    "province": "New Brunswick",
    "lat": 46.0957,
    "lng": -63.9068
  },
  {
    "postal_code": "E4N",
    "place_name": "Cap-Pel",
    "province": "New Brunswick",
    "lat": 46.2313,
    "lng": -64.2615
  },
  {
    "postal_code": "E4P",
    "place_name": "Shediac",
    "province": "New Brunswick",
    "lat": 46.2165,
    "lng": -64.5128
  },
  {
    "postal_code": "E4R",
    "place_name": "Cocagne",
    "province": "New Brunswick",
    "lat": 46.2324,
    "lng": -64.785
  },
  {
    "postal_code": "E4S",
    "place_name": "Bouctouche",
    "province": "New Brunswick",
    "lat": 46.4171,
    "lng": -64.9241
  },
  {
    "postal_code": "E4T",
    "place_name": "Bass River",
    "province": "New Brunswick",
    "lat": 46.3026,
    "lng": -64.9648
  },
  {
    "postal_code": "E4V",
    "place_name": "Saint-Antoine",
    "province": "New Brunswick",
    "lat": 46.3131,
    "lng": -64.5853
  },
  {
    "postal_code": "E4W",
    "place_name": "Richibucto",
    "province": "New Brunswick",
    "lat": 46.6493,
    "lng": -64.8842
  },
  {
    "postal_code": "E4X",
    "place_name": "St-Louis-de-Kent",
    "province": "New Brunswick",
    "lat": 46.735,
    "lng": -64.9744
  },
  {
    "postal_code": "E4Y",
    "place_name": "Rogersville",
    "province": "New Brunswick",
    "lat": 46.7333,
    "lng": -65.4489
  },
  {
    "postal_code": "E4Z",
    "place_name": "Petitcodiac",
    "province": "New Brunswick",
    "lat": 45.751,
    "lng": -65.048
  },
  {
    "postal_code": "E5A",
    "place_name": "Moores Mills",
    "province": "New Brunswick",
    "lat": 45.2441,
    "lng": -66.9929
  },
  {
    "postal_code": "E5B",
    "place_name": "St. Andrews",
    "province": "New Brunswick",
    "lat": 45.0732,
    "lng": -67.0428
  },
  {
    "postal_code": "E5C",
    "place_name": "St. George",
    "province": "New Brunswick",
    "lat": 45.2441,
    "lng": -66.9929
  },
  {
    "postal_code": "E5E",
    "place_name": "Campobello Island",
    "province": "New Brunswick",
    "lat": 44.887,
    "lng": -66.95
  },
  {
    "postal_code": "E5G",
    "place_name": "Grand Manan Island",
    "province": "New Brunswick",
    "lat": 44.6586,
    "lng": -66.8625
  },
  {
    "postal_code": "E5H",
    "place_name": "Pennfield",
    "province": "New Brunswick",
    "lat": 45.0766,
    "lng": -66.77
  },
  {
    "postal_code": "E5J",
    "place_name": "Lepreau",
    "province": "New Brunswick",
    "lat": 45.2116,
    "lng": -66.3491
  },
  {
    "postal_code": "E5K",
    "place_name": "Grand Bay-Westfield",
    "province": "New Brunswick",
    "lat": 45.331,
    "lng": -66.2095
  },
  {
    "postal_code": "E5L",
    "place_name": "Fredericton Junction",
    "province": "New Brunswick",
    "lat": 45.5281,
    "lng": -66.511
  },
  {
    "postal_code": "E5M",
    "place_name": "Gagetown",
    "province": "New Brunswick",
    "lat": 45.6287,
    "lng": -66.1751
  },
  {
    "postal_code": "E5N",
    "place_name": "Hampton",
    "province": "New Brunswick",
    "lat": 45.5263,
    "lng": -65.8155
  },
  {
    "postal_code": "E5P",
    "place_name": "Apohaqui",
    "province": "New Brunswick",
    "lat": 45.8489,
    "lng": -65.788
  },
  {
    "postal_code": "E5R",
    "place_name": "St. Martins",
    "province": "New Brunswick",
    "lat": 45.3849,
    "lng": -65.6331
  },
  {
    "postal_code": "E5S",
    "place_name": "Kingston",
    "province": "New Brunswick",
    "lat": 45.3571,
    "lng": -66.0858
  },
  {
    "postal_code": "E5T",
    "place_name": "Norton",
    "province": "New Brunswick",
    "lat": 45.6769,
    "lng": -65.884
  },
  {
    "postal_code": "E5V",
    "place_name": "Deer Island",
    "province": "New Brunswick",
    "lat": 45.0481,
    "lng": -66.9556
  },
  {
    "postal_code": "E6A",
    "place_name": "Boiestown",
    "province": "New Brunswick",
    "lat": 46.2767,
    "lng": -66.7384
  },
  {
    "postal_code": "E6B",
    "place_name": "Stanley",
    "province": "New Brunswick",
    "lat": 46.2324,
    "lng": -66.6683
  },
  {
    "postal_code": "E6C",
    "place_name": "Durham Bridge",
    "province": "New Brunswick",
    "lat": 45.9523,
    "lng": -66.6717
  },
  {
    "postal_code": "E6E",
    "place_name": "Millville",
    "province": "New Brunswick",
    "lat": 46.1296,
    "lng": -67.1953
  },
  {
    "postal_code": "E6G",
    "place_name": "Nackawic",
    "province": "New Brunswick",
    "lat": 45.9942,
    "lng": -67.2397
  },
  {
    "postal_code": "E6H",
    "place_name": "Canterbury",
    "province": "New Brunswick",
    "lat": 45.7207,
    "lng": -67.6516
  },
  {
    "postal_code": "E6J",
    "place_name": "McAdam",
    "province": "New Brunswick",
    "lat": 45.5927,
    "lng": -67.2973
  },
  {
    "postal_code": "E6K",
    "place_name": "Harvey",
    "province": "New Brunswick",
    "lat": 45.6975,
    "lng": -66.9557
  },
  {
    "postal_code": "E6L",
    "place_name": "Burtts Corner",
    "province": "New Brunswick",
    "lat": 46.12,
    "lng": -66.9477
  },
  {
    "postal_code": "E7A",
    "place_name": "Baker Brook",
    "province": "New Brunswick",
    "lat": 47.2542,
    "lng": -68.7211
  },
  {
    "postal_code": "E7B",
    "place_name": "Saint-Jacques",
    "province": "New Brunswick",
    "lat": 47.4785,
    "lng": -68.415
  },
  {
    "postal_code": "E7C",
    "place_name": "Saint-Basile",
    "province": "New Brunswick",
    "lat": 47.3516,
    "lng": -68.2208
  },
  {
    "postal_code": "E7E",
    "place_name": "Saint-Leonard",
    "province": "New Brunswick",
    "lat": 47.1717,
    "lng": -67.925
  },
  {
    "postal_code": "E7G",
    "place_name": "Plaster Rock",
    "province": "New Brunswick",
    "lat": 46.9097,
    "lng": -67.3971
  },
  {
    "postal_code": "E7H",
    "place_name": "Perth-Andover",
    "province": "New Brunswick",
    "lat": 46.7284,
    "lng": -67.7057
  },
  {
    "postal_code": "E7J",
    "place_name": "Bath",
    "province": "New Brunswick",
    "lat": 46.5082,
    "lng": -67.5871
  },
  {
    "postal_code": "E7K",
    "place_name": "Centreville",
    "province": "New Brunswick",
    "lat": 46.4328,
    "lng": -67.7105
  },
  {
    "postal_code": "E7L",
    "place_name": "Florenceville",
    "province": "New Brunswick",
    "lat": 46.4418,
    "lng": -67.63
  },
  {
    "postal_code": "E7M",
    "place_name": "Woodstock",
    "province": "New Brunswick",
    "lat": 46.1368,
    "lng": -67.5817
  },
  {
    "postal_code": "E7N",
    "place_name": "Debec",
    "province": "New Brunswick",
    "lat": 46.0089,
    "lng": -67.7236
  },
  {
    "postal_code": "E7P",
    "place_name": "Hartland",
    "province": "New Brunswick",
    "lat": 46.3709,
    "lng": -67.445
  },
  {
    "postal_code": "E8A",
    "place_name": "Saint-Quentin",
    "province": "New Brunswick",
    "lat": 47.5021,
    "lng": -67.3897
  },
  {
    "postal_code": "E8B",
    "place_name": "Kedgwick",
    "province": "New Brunswick",
    "lat": 47.6454,
    "lng": -67.3437
  },
  {
    "postal_code": "E8C",
    "place_name": "Dalhousie",
    "province": "New Brunswick",
    "lat": 48.0477,
    "lng": -66.4004
  },
  {
    "postal_code": "E8E",
    "place_name": "Balmoral",
    "province": "New Brunswick",
    "lat": 47.9879,
    "lng": -66.5145
  },
  {
    "postal_code": "E8G",
    "place_name": "Belledune",
    "province": "New Brunswick",
    "lat": 47.8741,
    "lng": -65.9102
  },
  {
    "postal_code": "E8J",
    "place_name": "Petit-Rocher",
    "province": "New Brunswick",
    "lat": 47.7634,
    "lng": -65.8276
  },
  {
    "postal_code": "E8K",
    "place_name": "Beresford",
    "province": "New Brunswick",
    "lat": 47.6736,
    "lng": -65.6795
  },
  {
    "postal_code": "E8L",
    "place_name": "Allardville",
    "province": "New Brunswick",
    "lat": 47.5887,
    "lng": -65.0979
  },
  {
    "postal_code": "E8M",
    "place_name": "Saint-Isidore",
    "province": "New Brunswick",
    "lat": 47.8022,
    "lng": -65.1862
  },
  {
    "postal_code": "E8N",
    "place_name": "Grande-Anse",
    "province": "New Brunswick",
    "lat": 47.8219,
    "lng": -65.0917
  },
  {
    "postal_code": "E8P",
    "place_name": "Inkerman",
    "province": "New Brunswick",
    "lat": 47.6656,
    "lng": -64.9543
  },
  {
    "postal_code": "E8R",
    "place_name": "Paquetville",
    "province": "New Brunswick",
    "lat": 47.7443,
    "lng": -64.7222
  },
  {
    "postal_code": "E8S",
    "place_name": "Shippagan",
    "province": "New Brunswick",
    "lat": 47.7456,
    "lng": -64.7143
  },
  {
    "postal_code": "E8T",
    "place_name": "Lamque",
    "province": "New Brunswick",
    "lat": 47.792,
    "lng": -64.652
  },
  {
    "postal_code": "E9A",
    "place_name": "Baie-Sainte-Anne",
    "province": "New Brunswick",
    "lat": 46.7385,
    "lng": -65.8528
  },
  {
    "postal_code": "E9B",
    "place_name": "Blackville",
    "province": "New Brunswick",
    "lat": 46.7772,
    "lng": -65.8638
  },
  {
    "postal_code": "E9C",
    "place_name": "Doaktown",
    "province": "New Brunswick",
    "lat": 46.4477,
    "lng": -66.2584
  },
  {
    "postal_code": "E9E",
    "place_name": "Red Bank",
    "province": "New Brunswick",
    "lat": 46.9795,
    "lng": -65.6715
  },
  {
    "postal_code": "E9G",
    "place_name": "Neguac",
    "province": "New Brunswick",
    "lat": 47.2316,
    "lng": -65.1378
  },
  {
    "postal_code": "E9H",
    "place_name": "Brantville",
    "province": "New Brunswick",
    "lat": 47.3272,
    "lng": -65.011
  },
  {
    "postal_code": "A0A",
    "place_name": "Southeastern Avalon Peninsula (Ferryland)",
    "province": "Newfoundland and Labrador",
    "lat": 47.0073,
    "lng": -52.9589
  },
  {
    "postal_code": "A0B",
    "place_name": "Western Avalon Peninsula (Argentia)",
    "province": "Newfoundland and Labrador",
    "lat": 47.7609,
    "lng": -53.9834
  },
  {
    "postal_code": "A0C",
    "place_name": "Bonavista Peninsula (Bonavista)",
    "province": "Newfoundland and Labrador",
    "lat": 48.3464,
    "lng": -53.9646
  },
  {
    "postal_code": "A0E",
    "place_name": "Burin Peninsula (Marystown)",
    "province": "Newfoundland and Labrador",
    "lat": 47.3597,
    "lng": -54.8984
  },
  {
    "postal_code": "A0G",
    "place_name": "Northeast Newfoundland (Lewisporte)",
    "province": "Newfoundland and Labrador",
    "lat": 49.4536,
    "lng": -54.1045
  },
  {
    "postal_code": "A0H",
    "place_name": "Central Newfoundland (Bishops Falls)",
    "province": "Newfoundland and Labrador",
    "lat": 49.1301,
    "lng": -56.0845
  },
  {
    "postal_code": "A0J",
    "place_name": "Northern Newfoundland (Springdale)",
    "province": "Newfoundland and Labrador",
    "lat": 49.5959,
    "lng": -55.6739
  },
  {
    "postal_code": "A0K",
    "place_name": "Northwest Newfoundland/Eastern Labrador (Mary's Harbour)",
    "province": "Newfoundland and Labrador",
    "lat": 51.2327,
    "lng": -56.7969
  },
  {
    "postal_code": "A0L",
    "place_name": "Western Newfoundland (Lark Harbour)",
    "province": "Newfoundland and Labrador",
    "lat": 48.9934,
    "lng": -58.1009
  },
  {
    "postal_code": "A0M",
    "place_name": "Southwestern Newfoundland (Channel-Port aux Basques)",
    "province": "Newfoundland and Labrador",
    "lat": 48.1816,
    "lng": -58.858
  },
  {
    "postal_code": "A0N",
    "place_name": "Port au Port Peninsula region (St. George's)",
    "province": "Newfoundland and Labrador",
    "lat": 48.6113,
    "lng": -58.8736
  },
  {
    "postal_code": "A0P",
    "place_name": "Central Labrador (Happy Valley-Goose Bay)",
    "province": "Newfoundland and Labrador",
    "lat": 55.8889,
    "lng": -60.8805
  },
  {
    "postal_code": "A0R",
    "place_name": "North/Western Labrador (Churchill Falls)",
    "province": "Newfoundland and Labrador",
    "lat": 53.5329,
    "lng": -64.0145
  },
  {
    "postal_code": "A1A",
    "place_name": "St. John's North",
    "province": "Newfoundland and Labrador",
    "lat": 47.571,
    "lng": -52.6961
  },
  {
    "postal_code": "A1B",
    "place_name": "St. John's Northwest Newfoundland & Labrador Provincial Government",
    "province": "Newfoundland and Labrador",
    "lat": 47.5736,
    "lng": -52.7083
  },
  {
    "postal_code": "A1C",
    "place_name": "St. John's North Central",
    "province": "Newfoundland and Labrador",
    "lat": 47.5677,
    "lng": -52.7031
  },
  {
    "postal_code": "A1E",
    "place_name": "St. John's Central",
    "province": "Newfoundland and Labrador",
    "lat": 47.5507,
    "lng": -52.7147
  },
  {
    "postal_code": "A1G",
    "place_name": "St. John's South",
    "province": "Newfoundland and Labrador",
    "lat": 47.5295,
    "lng": -52.7417
  },
  {
    "postal_code": "A1H",
    "place_name": "St. John's Southwest",
    "province": "Newfoundland and Labrador",
    "lat": 47.4926,
    "lng": -52.8123
  },
  {
    "postal_code": "A1K",
    "place_name": "Torbay",
    "province": "Newfoundland and Labrador",
    "lat": 47.6542,
    "lng": -52.7367
  },
  {
    "postal_code": "A1L",
    "place_name": "Paradise",
    "province": "Newfoundland and Labrador",
    "lat": 47.5363,
    "lng": -52.8389
  },
  {
    "postal_code": "A1M",
    "place_name": "Portugal Cove-St. Philips",
    "province": "Newfoundland and Labrador",
    "lat": 47.5982,
    "lng": -52.8384
  },
  {
    "postal_code": "A1N",
    "place_name": "Mount Pearl",
    "province": "Newfoundland and Labrador",
    "lat": 47.5203,
    "lng": -52.7789
  },
  {
    "postal_code": "A1S",
    "place_name": "Goulds",
    "province": "Newfoundland and Labrador",
    "lat": 47.462,
    "lng": -52.7895
  },
  {
    "postal_code": "A1V",
    "place_name": "Gander",
    "province": "Newfoundland and Labrador",
    "lat": 48.9632,
    "lng": -54.6169
  },
  {
    "postal_code": "A1W",
    "place_name": "Manuels",
    "province": "Newfoundland and Labrador",
    "lat": 47.5329,
    "lng": -52.9132
  },
  {
    "postal_code": "A1X",
    "place_name": "Conception Bay",
    "province": "Newfoundland and Labrador",
    "lat": 47.5238,
    "lng": -52.9595
  },
  {
    "postal_code": "A1Y",
    "place_name": "Carbonear",
    "province": "Newfoundland and Labrador",
    "lat": 48.9268,
    "lng": -55.6613
  },
  {
    "postal_code": "A2A",
    "place_name": "Grand Falls",
    "province": "Newfoundland and Labrador",
    "lat": 48.9249,
    "lng": -55.6493
  },
  {
    "postal_code": "A2B",
    "place_name": "Windsor",
    "province": "Newfoundland and Labrador",
    "lat": 48.949,
    "lng": -55.6725
  },
  {
    "postal_code": "A2H",
    "place_name": "Corner Brook",
    "province": "Newfoundland and Labrador",
    "lat": 48.9654,
    "lng": -57.9225
  },
  {
    "postal_code": "A2N",
    "place_name": "Stephenville",
    "province": "Newfoundland and Labrador",
    "lat": 48.5656,
    "lng": -58.6
  },
  {
    "postal_code": "A2V",
    "place_name": "Labrador City",
    "province": "Newfoundland and Labrador",
    "lat": 52.9348,
    "lng": -66.9145
  },
  {
    "postal_code": "A5A",
    "place_name": "Clarenville",
    "province": "Newfoundland and Labrador",
    "lat": 48.1666,
    "lng": -53.9628
  },
  {
    "postal_code": "A8A",
    "place_name": "Deer Lake",
    "province": "Newfoundland and Labrador",
    "lat": 49.1778,
    "lng": -57.413
  },
  {
    "postal_code": "B0C",
    "place_name": "North Victoria County (Dingwall)",
    "province": "Nova Scotia",
    "lat": 46.2811,
    "lng": -60.2825
  },
  {
    "postal_code": "B0E",
    "place_name": "West Cape Breton Island (Baddeck)",
    "province": "Nova Scotia",
    "lat": 45.5148,
    "lng": -60.966
  },
  {
    "postal_code": "B0H",
    "place_name": "Canso region (Havre Boucher)",
    "province": "Nova Scotia",
    "lat": 45.6051,
    "lng": -61.6975
  },
  {
    "postal_code": "B0J",
    "place_name": "Mainland east shore (Lunenburg)",
    "province": "Nova Scotia",
    "lat": 45.1458,
    "lng": -61.8108
  },
  {
    "postal_code": "B0K",
    "place_name": "Southern Northumberland Strait (Pictou)",
    "province": "Nova Scotia",
    "lat": 45.5808,
    "lng": -62.1969
  },
  {
    "postal_code": "B0L",
    "place_name": "Isthmus of Chignecto (River Hbert)",
    "province": "Nova Scotia",
    "lat": 45.5802,
    "lng": -64.6646
  },
  {
    "postal_code": "B0M",
    "place_name": "Cobequid Bay north shore (Springhill)",
    "province": "Nova Scotia",
    "lat": 45.3317,
    "lng": -64.7596
  },
  {
    "postal_code": "B0N",
    "place_name": "Hants County (Shubenacadie)",
    "province": "Nova Scotia",
    "lat": 44.8794,
    "lng": -63.7254
  },
  {
    "postal_code": "B0P",
    "place_name": "Kings County (Kingston)",
    "province": "Nova Scotia",
    "lat": 45.0191,
    "lng": -64.8882
  },
  {
    "postal_code": "B0R",
    "place_name": "West Lunenburg County (New Germany)",
    "province": "Nova Scotia",
    "lat": 44.7424,
    "lng": -65.5111
  },
  {
    "postal_code": "B0S",
    "place_name": "West Annapolis County (Middleton)",
    "province": "Nova Scotia",
    "lat": 44.6491,
    "lng": -65.5472
  },
  {
    "postal_code": "B0T",
    "place_name": "Queens County (Shelburne)",
    "province": "Nova Scotia",
    "lat": 43.7029,
    "lng": -65.1119
  },
  {
    "postal_code": "B0V",
    "place_name": "Digby Neck (Digby)",
    "province": "Nova Scotia",
    "lat": 44.03,
    "lng": -65.9445
  },
  {
    "postal_code": "B0W",
    "place_name": "Southwest Mainland (Weymouth)",
    "province": "Nova Scotia",
    "lat": 43.8187,
    "lng": -65.9517
  },
  {
    "postal_code": "B1A",
    "place_name": "Glace Bay",
    "province": "Nova Scotia",
    "lat": 46.1794,
    "lng": -59.9477
  },
  {
    "postal_code": "B1B",
    "place_name": "Port Morien",
    "province": "Nova Scotia",
    "lat": 46.1365,
    "lng": -59.8717
  },
  {
    "postal_code": "B1C",
    "place_name": "Louisbourg",
    "province": "Nova Scotia",
    "lat": 46.2152,
    "lng": -60.2452
  },
  {
    "postal_code": "B1E",
    "place_name": "Reserve Mines",
    "province": "Nova Scotia",
    "lat": 46.2003,
    "lng": -60.0215
  },
  {
    "postal_code": "B1G",
    "place_name": "Dominion",
    "province": "Nova Scotia",
    "lat": 46.2063,
    "lng": -60.0255
  },
  {
    "postal_code": "B1H",
    "place_name": "New Waterford",
    "province": "Nova Scotia",
    "lat": 46.2295,
    "lng": -60.0941
  },
  {
    "postal_code": "B1J",
    "place_name": "East Bay",
    "province": "Nova Scotia",
    "lat": 45.8365,
    "lng": -60.4435
  },
  {
    "postal_code": "B1K",
    "place_name": "Marion Bridge",
    "province": "Nova Scotia",
    "lat": 46.1309,
    "lng": -60.1864
  },
  {
    "postal_code": "B1L",
    "place_name": "Sydney Southwest",
    "province": "Nova Scotia",
    "lat": 46.0911,
    "lng": -60.2462
  },
  {
    "postal_code": "B1M",
    "place_name": "Sydney East",
    "province": "Nova Scotia",
    "lat": 46.169,
    "lng": -60.1013
  },
  {
    "postal_code": "B1N",
    "place_name": "Sydney North",
    "province": "Nova Scotia",
    "lat": 46.167,
    "lng": -60.1943
  },
  {
    "postal_code": "B1P",
    "place_name": "Sydney North Central",
    "province": "Nova Scotia",
    "lat": 46.1337,
    "lng": -60.1939
  },
  {
    "postal_code": "B1R",
    "place_name": "Sydney West",
    "province": "Nova Scotia",
    "lat": 46.1224,
    "lng": -60.2236
  },
  {
    "postal_code": "B1S",
    "place_name": "Sydney Central",
    "province": "Nova Scotia",
    "lat": 46.1334,
    "lng": -60.1947
  },
  {
    "postal_code": "B1T",
    "place_name": "Christmas Island",
    "province": "Nova Scotia",
    "lat": 46.1122,
    "lng": -60.2372
  },
  {
    "postal_code": "B1V",
    "place_name": "North Sydney North",
    "province": "Nova Scotia",
    "lat": 46.2383,
    "lng": -60.2165
  },
  {
    "postal_code": "B1W",
    "place_name": "Eskasoni",
    "province": "Nova Scotia",
    "lat": 45.9245,
    "lng": -60.6449
  },
  {
    "postal_code": "B1X",
    "place_name": "Big Bras d'Or",
    "province": "Nova Scotia",
    "lat": 46.2667,
    "lng": -60.4333
  },
  {
    "postal_code": "B1Y",
    "place_name": "Alder Point",
    "province": "Nova Scotia",
    "lat": 46.1811,
    "lng": -60.5067
  },
  {
    "postal_code": "B2A",
    "place_name": "North Sydney South Central",
    "province": "Nova Scotia",
    "lat": 46.2397,
    "lng": -60.0998
  },
  {
    "postal_code": "B2C",
    "place_name": "Iona",
    "province": "Nova Scotia",
    "lat": 45.6218,
    "lng": -62.0004
  },
  {
    "postal_code": "B2E",
    "place_name": "Loch Lomond",
    "province": "Nova Scotia",
    "lat": 45.6272,
    "lng": -61.9977
  },
  {
    "postal_code": "B2G",
    "place_name": "Antigonish",
    "province": "Nova Scotia",
    "lat": 45.6243,
    "lng": -61.9996
  },
  {
    "postal_code": "B2H",
    "place_name": "New Glasgow",
    "province": "Nova Scotia",
    "lat": 45.5937,
    "lng": -62.6585
  },
  {
    "postal_code": "B2J",
    "place_name": "Fourchu",
    "province": "Nova Scotia",
    "lat": 45.3747,
    "lng": -63.2951
  },
  {
    "postal_code": "B2N",
    "place_name": "Truro",
    "province": "Nova Scotia",
    "lat": 45.3486,
    "lng": -63.3029
  },
  {
    "postal_code": "B2R",
    "place_name": "Waverley",
    "province": "Nova Scotia",
    "lat": 44.7431,
    "lng": -63.5144
  },
  {
    "postal_code": "B2S",
    "place_name": "Lantz",
    "province": "Nova Scotia",
    "lat": 44.9775,
    "lng": -63.4209
  },
  {
    "postal_code": "B2T",
    "place_name": "Enfield",
    "province": "Nova Scotia",
    "lat": 44.8488,
    "lng": -63.5999
  },
  {
    "postal_code": "B2V",
    "place_name": "Dartmouth Morris Lake",
    "province": "Nova Scotia",
    "lat": 44.669,
    "lng": -63.5019
  },
  {
    "postal_code": "B2W",
    "place_name": "Dartmouth East Central",
    "province": "Nova Scotia",
    "lat": 44.6449,
    "lng": -63.5433
  },
  {
    "postal_code": "B2X",
    "place_name": "Dartmouth North Central",
    "province": "Nova Scotia",
    "lat": 44.6829,
    "lng": -63.5442
  },
  {
    "postal_code": "B2Y",
    "place_name": "Dartmouth South Central",
    "province": "Nova Scotia",
    "lat": 44.7314,
    "lng": -63.6482
  },
  {
    "postal_code": "B2Z",
    "place_name": "Dartmouth East",
    "province": "Nova Scotia",
    "lat": 44.7104,
    "lng": -63.4759
  },
  {
    "postal_code": "B3A",
    "place_name": "Dartmouth Southwest",
    "province": "Nova Scotia",
    "lat": 44.6663,
    "lng": -63.5763
  },
  {
    "postal_code": "B3B",
    "place_name": "Dartmouth Northwest",
    "province": "Nova Scotia",
    "lat": 44.6886,
    "lng": -63.6076
  },
  {
    "postal_code": "B3E",
    "place_name": "Porters Lake",
    "province": "Nova Scotia",
    "lat": 44.7227,
    "lng": -63.3973
  },
  {
    "postal_code": "B3G",
    "place_name": "Eastern Passage",
    "province": "Nova Scotia",
    "lat": 44.6156,
    "lng": -63.4929
  },
  {
    "postal_code": "B3H",
    "place_name": "Halifax Lower Harbour",
    "province": "Nova Scotia",
    "lat": 44.6224,
    "lng": -63.5736
  },
  {
    "postal_code": "B3J",
    "place_name": "Halifax Mid-Harbour Nova Scotia Provincial Government",
    "province": "Nova Scotia",
    "lat": 44.641,
    "lng": -63.5682
  },
  {
    "postal_code": "B3K",
    "place_name": "Halifax Upper Harbour",
    "province": "Nova Scotia",
    "lat": 44.6514,
    "lng": -63.5818
  },
  {
    "postal_code": "B3L",
    "place_name": "Halifax Central",
    "province": "Nova Scotia",
    "lat": 44.6464,
    "lng": -63.5929
  },
  {
    "postal_code": "B3M",
    "place_name": "Halifax Bedford Basin",
    "province": "Nova Scotia",
    "lat": 44.6617,
    "lng": -63.6291
  },
  {
    "postal_code": "B3N",
    "place_name": "Halifax South Central",
    "province": "Nova Scotia",
    "lat": 44.6327,
    "lng": -63.6219
  },
  {
    "postal_code": "B3P",
    "place_name": "Halifax North West Arm",
    "province": "Nova Scotia",
    "lat": 44.6284,
    "lng": -63.596
  },
  {
    "postal_code": "B3R",
    "place_name": "Halifax South",
    "province": "Nova Scotia",
    "lat": 44.5829,
    "lng": -63.5671
  },
  {
    "postal_code": "B3S",
    "place_name": "Halifax West",
    "province": "Nova Scotia",
    "lat": 44.6408,
    "lng": -63.6723
  },
  {
    "postal_code": "B3T",
    "place_name": "Lakeside",
    "province": "Nova Scotia",
    "lat": 44.6404,
    "lng": -63.6888
  },
  {
    "postal_code": "B3V",
    "place_name": "Harrietsfield",
    "province": "Nova Scotia",
    "lat": 44.5682,
    "lng": -63.6177
  },
  {
    "postal_code": "B3Z",
    "place_name": "Tantallon",
    "province": "Nova Scotia",
    "lat": 44.5539,
    "lng": -63.8307
  },
  {
    "postal_code": "B4A",
    "place_name": "Bedford Southeast",
    "province": "Nova Scotia",
    "lat": 44.7089,
    "lng": -63.6676
  },
  {
    "postal_code": "B4B",
    "place_name": "Bedford Northwest",
    "province": "Nova Scotia",
    "lat": 44.7235,
    "lng": -63.6899
  },
  {
    "postal_code": "B4C",
    "place_name": "Lower Sackville South",
    "province": "Nova Scotia",
    "lat": 44.7765,
    "lng": -63.6854
  },
  {
    "postal_code": "B4E",
    "place_name": "Lower Sackville West",
    "province": "Nova Scotia",
    "lat": 44.7803,
    "lng": -63.6916
  },
  {
    "postal_code": "B4G",
    "place_name": "Lower Sackville North",
    "province": "Nova Scotia",
    "lat": 44.805,
    "lng": -63.667
  },
  {
    "postal_code": "B4H",
    "place_name": "Amherst",
    "province": "Nova Scotia",
    "lat": 45.8353,
    "lng": -64.2182
  },
  {
    "postal_code": "B4N",
    "place_name": "Kentville",
    "province": "Nova Scotia",
    "lat": 45.0899,
    "lng": -64.4963
  },
  {
    "postal_code": "B4P",
    "place_name": "Wolfville",
    "province": "Nova Scotia",
    "lat": 45.0917,
    "lng": -64.3599
  },
  {
    "postal_code": "B4R",
    "place_name": "Coldbrook",
    "province": "Nova Scotia",
    "lat": 44.3695,
    "lng": -64.5197
  },
  {
    "postal_code": "B4V",
    "place_name": "Bridgewater",
    "province": "Nova Scotia",
    "lat": 44.3683,
    "lng": -64.506
  },
  {
    "postal_code": "B5A",
    "place_name": "Yarmouth",
    "province": "Nova Scotia",
    "lat": 43.8245,
    "lng": -66.1207
  },
  {
    "postal_code": "B9A",
    "place_name": "Port Hawkesbury",
    "province": "Nova Scotia",
    "lat": 45.612,
    "lng": -61.3486
  },
  {
    "postal_code": "X0E",
    "place_name": "Central Northwest Territories (Inuvik)",
    "province": "Northwest Territory",
    "lat": 62.4043,
    "lng": -110.7417
  },
  {
    "postal_code": "X0G",
    "place_name": "Southwestern Northwest Territories (Fort Liard)",
    "province": "Northwest Territory",
    "lat": 60.25,
    "lng": -123.41
  },
  {
    "postal_code": "X1A",
    "place_name": "Yellowknife",
    "province": "Northwest Territory",
    "lat": 62.4725,
    "lng": -114.3417
  },